{
"type": "FeatureCollection",
"crs": { "type": "name", "properties": { "name": "urn:ogc:def:crs:OGC:1.3:CRS84" } },
"features": [
{ "type": "Feature", "properties": { "Dependencia": "Comisaría", "Organismo": "Ministerio de Seguridad", "Nombre": "EST.POL.COM.SALTO", "Dirección": "ALVEAR 44", "Partido": "Salto", "Teléfono": "02474-422474 \/ 422100", "Representa": "COMISARIO PAHUASI JUSTO GERMAN" }, "geometry": { "type": "Point", "coordinates": [ -60.25519436, -34.29463675 ] } },
{ "type": "Feature", "properties": { "Dependencia": "Comisaría", "Organismo": "Ministerio de Seguridad", "Nombre": "SUBCRIA.GORINA", "Dirección": "140 BIS ENTRE 492 Y 501", "Partido": "La Plata", "Teléfono": "2214848037", "Representa": "" }, "geometry": { "type": "Point", "coordinates": [ -58.0365926, -34.90889071 ] } },
{ "type": "Feature", "properties": { "Dependencia": "Comisaría", "Organismo": "Ministerio de Seguridad", "Nombre": "CRIA.MUJER Y FLIA.GRAL.PAZ", "Dirección": "CAMPOMAR 2944", "Partido": "General Paz", "Teléfono": "", "Representa": "SUBCOMISARIO ALVAREZ NATALIA MARIA" }, "geometry": { "type": "Point", "coordinates": [ -58.31540785, -35.51653727 ] } },
{ "type": "Feature", "properties": { "Dependencia": "Comisaría", "Organismo": "Ministerio de Seguridad", "Nombre": "SUBCRIA.J.N.FERNANDEZ", "Dirección": "26 1759", "Partido": "Necochea", "Teléfono": "2264498204", "Representa": "SUBCOMISARIO REYNOSO LUCAS IVAN" }, "geometry": { "type": "Point", "coordinates": [ -58.69220602, -38.56144269 ] } },
{ "type": "Feature", "properties": { "Dependencia": "Comisaría", "Organismo": "Ministerio de Seguridad", "Nombre": "", "Dirección": "9 DE JULIO 646", "Partido": "Chacabuco", "Teléfono": "2352491513", "Representa": "" }, "geometry": { "type": "Point", "coordinates": [ -60.47922691, -34.64945031 ] } },
{ "type": "Feature", "properties": { "Dependencia": "Comisaría", "Organismo": "Ministerio de Seguridad", "Nombre": "SUBCRIA.L.N.ALEM", "Dirección": "LAS HERAS 446", "Partido": "Leandro N. Alem", "Teléfono": "2364491022", "Representa": "SUBCOMISARIO MONTIEL DIEGO MIGUEL" }, "geometry": { "type": "Point", "coordinates": [ -61.54734916, -34.5001564 ] } },
{ "type": "Feature", "properties": { "Dependencia": "Comisaría", "Organismo": "Ministerio de Seguridad", "Nombre": "EST.POL.COM.PINAMAR 4TA-CARILO", "Dirección": "RUTA 11 Y KM 403", "Partido": "Pinamar", "Teléfono": "02254-470537\/491213", "Representa": "COMISARIO MORENO MIGUEL ALFREDO" }, "geometry": { "type": "Point", "coordinates": [ -56.92844432, -37.15773946 ] } },
{ "type": "Feature", "properties": { "Dependencia": "Comisaría", "Organismo": "Ministerio de Seguridad", "Nombre": "EST.POL.COM.VILLA GESELL 4TA", "Dirección": "112 Y CIRCUNVALACION", "Partido": "Villa Gesell", "Teléfono": "2255452780", "Representa": "SUBCOMISARIO FERREYRA ROBERTO HECTOR" }, "geometry": { "type": "Point", "coordinates": [ -56.98813108, -37.25743672 ] } },
{ "type": "Feature", "properties": { "Dependencia": "Comisaría", "Organismo": "Ministerio de Seguridad", "Nombre": "CRIA.MAR DEL PLATA 9NA", "Dirección": "ALMAFUERTE 757 - GENERAL PUEYRREDON", "Partido": "General Pueyrredón", "Teléfono": "0223-4513447\/ 9571", "Representa": "COMISARIO RUIZ GUSTAVO VICENTE" }, "geometry": { "type": "Point", "coordinates": [ -57.543168, -38.027136 ] } },
{ "type": "Feature", "properties": { "Dependencia": "Comisaría", "Organismo": "Ministerio de Seguridad", "Nombre": "CRIA.MAR DEL PLATA 2DA", "Dirección": "CASTELLI 2024 - GENERAL PUEYRREDON", "Partido": "General Pueyrredón", "Teléfono": "0223-4949851\/4949861", "Representa": "SUBCOMISARIO MORAN CARLOS ARIEL" }, "geometry": { "type": "Point", "coordinates": [ -57.54888, -38.011996 ] } },
{ "type": "Feature", "properties": { "Dependencia": "Comisaría", "Organismo": "Ministerio de Seguridad", "Nombre": "CRIA.MAR DEL PLATA 3RA", "Dirección": "PADRE DUTTO 535 - GENERAL PUEYRREDON", "Partido": "General Pueyrredón", "Teléfono": "0223-4802620\/2722", "Representa": "" }, "geometry": { "type": "Point", "coordinates": [ -57.551897, -38.040437 ] } },
{ "type": "Feature", "properties": { "Dependencia": "Comisaría", "Organismo": "Ministerio de Seguridad", "Nombre": "CRIA.DOLORES", "Dirección": "QUADRI Y ALBERDI", "Partido": "Dolores", "Teléfono": "02245-446213", "Representa": "COMISARIO MONTENEGRO RODOLFO AGUSTIN" }, "geometry": { "type": "Point", "coordinates": [ -57.679857, -36.313232 ] } },
{ "type": "Feature", "properties": { "Dependencia": "Comisaría", "Organismo": "Ministerio de Seguridad", "Nombre": "EST.POL.COM.MIRAMAR", "Dirección": "MITRE N° 1137", "Partido": "General Alvarado", "Teléfono": "2291420613\/02291421548", "Representa": "SUBCOMISARIO CABALLERO ANDRES HUGO" }, "geometry": { "type": "Point", "coordinates": [ -57.83750965, -38.27237908 ] } },
{ "type": "Feature", "properties": { "Dependencia": "Comisaría", "Organismo": "Ministerio de Seguridad", "Nombre": "CRIA.BERISSO 1RA", "Dirección": "168 E\/ 8 Y CORRALON MUNICIPAL", "Partido": "Berisso", "Teléfono": "0221-4640005\/06", "Representa": "COMISARIO INSPECTOR ARISTIMUÑO VICTOR JOSE" }, "geometry": { "type": "Point", "coordinates": [ -57.885628, -34.865795 ] } },
{ "type": "Feature", "properties": { "Dependencia": "Comisaría", "Organismo": "Ministerio de Seguridad", "Nombre": "CRIA.LA PLATA 5TA", "Dirección": "DIAG. 74 E\/ 24 Y 23", "Partido": "La Plata", "Teléfono": "0221-4577122\/21", "Representa": "COMISARIO CORDOBA CARLOS ALBERTO" }, "geometry": { "type": "Point", "coordinates": [ -57.95373, -34.940075 ] } },
{ "type": "Feature", "properties": { "Dependencia": "Comisaría", "Organismo": "Ministerio de Seguridad", "Nombre": "CRIA.LA PLATA 3RA", "Dirección": "137 E\/ 61 Y 62", "Partido": "La Plata", "Teléfono": "0221-4507890\/ 4560934", "Representa": "" }, "geometry": { "type": "Point", "coordinates": [ -57.971453, -34.950697 ] } },
{ "type": "Feature", "properties": { "Dependencia": "Comisaría", "Organismo": "Ministerio de Seguridad", "Nombre": "CRIA.LA PLATA 13RA", "Dirección": "502 E\/ 14 Y 15", "Partido": "La Plata", "Teléfono": "0221-4713500\/5434\/4847147", "Representa": "SUBCOMISARIO GORBARAN JUAN MANUEL" }, "geometry": { "type": "Point", "coordinates": [ -58.010395, -34.882484 ] } },
{ "type": "Feature", "properties": { "Dependencia": "Comisaría", "Organismo": "Ministerio de Seguridad", "Nombre": "CRIA.LA PLATA 14TA", "Dirección": "173 E\/ 517 BIS Y 517", "Partido": "La Plata", "Teléfono": "0221-478-1684\/ 1154", "Representa": "SUBCOMISARIO LLONTOP FENCO HEBERT JHONY" }, "geometry": { "type": "Point", "coordinates": [ -58.054677, -34.95027 ] } },
{ "type": "Feature", "properties": { "Dependencia": "Comisaría", "Organismo": "Ministerio de Seguridad", "Nombre": "CRIA.LA PLATA 12DA", "Dirección": "12 E\/ 48 Y 49", "Partido": "La Plata", "Teléfono": "0221-4731328\/1599\/0075", "Representa": "" }, "geometry": { "type": "Point", "coordinates": [ -58.08774, -34.857187 ] } },
{ "type": "Feature", "properties": { "Dependencia": "Comisaría", "Organismo": "Ministerio de Seguridad", "Nombre": "CRIA.FLORENCIO VARELA 6TA", "Dirección": "AV LA CALORINA E\/ HUANACACHE Y MENDOZA", "Partido": "Florencio Varela", "Teléfono": "02229491999\/496310", "Representa": "COMISARIO SKRAMOWSKYJ EDUARDO OSCAR" }, "geometry": { "type": "Point", "coordinates": [ -58.188844, -34.868592 ] } },
{ "type": "Feature", "properties": { "Dependencia": "Comisaría", "Organismo": "Ministerio de Seguridad", "Nombre": "CRIA.QUILMES 4TA", "Dirección": "845 NRO. 2235", "Partido": "Quilmes", "Teléfono": "011-42120105\/0333\/2273", "Representa": "COMISARIO INSPECTOR ABALOS GABRIEL ALEJANDRO" }, "geometry": { "type": "Point", "coordinates": [ -58.308156, -34.778595 ] } },
{ "type": "Feature", "properties": { "Dependencia": "Comisaría", "Organismo": "Ministerio de Seguridad", "Nombre": "CRIA.ALMIRANTE BROWN 3RA", "Dirección": "30 DE SEPTIEMBRE NRO. 4254", "Partido": "Almirante Brown", "Teléfono": "1142912221", "Representa": "SUBCOMISARIO CACIOLI CESAR OMAR" }, "geometry": { "type": "Point", "coordinates": [ -58.359342, -34.771786 ] } },
{ "type": "Feature", "properties": { "Dependencia": "Comisaría", "Organismo": "Ministerio de Seguridad", "Nombre": "CRIA.ALMIRANTE BROWN 1RA", "Dirección": "DIAG. TOLL, JUAN E\/ BOUCHARD Y DRUMOND", "Partido": "Almirante Brown", "Teléfono": "1142943333", "Representa": "COMISARIO ZUCCOTTI MARTIN OSCAR" }, "geometry": { "type": "Point", "coordinates": [ -58.381969, -34.79827 ] } },
{ "type": "Feature", "properties": { "Dependencia": "Comisaría", "Organismo": "Ministerio de Seguridad", "Nombre": "CRIA.LOMAS DE ZAMORA 7MA", "Dirección": "BILBAO LA VIEJA E\/ PERITO MORENO Y ACERBONI, ANA", "Partido": "Lomas de Zamora", "Teléfono": "01142428600\/42423840", "Representa": "SUBCOMISARIO GODOY LUIS ALBERTO" }, "geometry": { "type": "Point", "coordinates": [ -58.422851, -34.735117 ] } },
{ "type": "Feature", "properties": { "Dependencia": "Comisaría", "Organismo": "Ministerio de Seguridad", "Nombre": "CRIA.VICENTE LOPEZ 1RA", "Dirección": "AV. MAIPU E\/ PELLIZA, M. Y SAENZ PENA, R.", "Partido": "Vicente López", "Teléfono": "1145139797\/1145139815\/1145139816", "Representa": "SUBCOMISARIO MENDEZ JUAN MANUEL" }, "geometry": { "type": "Point", "coordinates": [ -58.491802, -34.509002 ] } },
{ "type": "Feature", "properties": { "Dependencia": "Comisaría", "Organismo": "Ministerio de Seguridad", "Nombre": "CRIA.LA MATANZA NORESTE 2DA", "Dirección": "QUINTANA E\/ TAPALQUE Y OLAGUER", "Partido": "La Matanza", "Teléfono": "4652-3344\/3443", "Representa": "COMISARIO URUS ROBERTO SILVIO" }, "geometry": { "type": "Point", "coordinates": [ -58.521509, -34.664429 ] } },
{ "type": "Feature", "properties": { "Dependencia": "Comisaría", "Organismo": "Ministerio de Seguridad", "Nombre": "CRIA.VICENTE LOPEZ 3RA", "Dirección": "ARMENIA E\/ RUBEN DARIO Y HERNANDEZ, JOSE", "Partido": "Vicente López", "Teléfono": "1145125553\/1145125544", "Representa": "COMISARIO MILAN ALBERTO ALEJANDRO" }, "geometry": { "type": "Point", "coordinates": [ -58.523142, -34.528346 ] } },
{ "type": "Feature", "properties": { "Dependencia": "Comisaría", "Organismo": "Ministerio de Seguridad", "Nombre": "CRIA.SAN ISIDRO 7MA", "Dirección": "PALMA, DIEGO E\/ BILLINGHURTS Y BERGALLO", "Partido": "San Isidro", "Teléfono": "1145130045\/44\/46", "Representa": "" }, "geometry": { "type": "Point", "coordinates": [ -58.53423, -34.479695 ] } },
{ "type": "Feature", "properties": { "Dependencia": "Comisaría", "Organismo": "Ministerio de Seguridad", "Nombre": "CRIA.TRES DE FEBRERO 4TA", "Dirección": "L. DE LA TORRE E\/ TRENQUE LAUQUEN Y FLEMING", "Partido": "Tres de Febrero", "Teléfono": "01145127977\/79\/95\/96", "Representa": "COMISARIO OSSIMELLI EDGARDO CRISTIAN" }, "geometry": { "type": "Point", "coordinates": [ -58.558066, -34.618782 ] } },
{ "type": "Feature", "properties": { "Dependencia": "Comisaría", "Organismo": "Ministerio de Seguridad", "Nombre": "CRIA.TIGRE 1RA", "Dirección": "BOURDIEU NRO. 485", "Partido": "Tigre", "Teléfono": "1145805222\/5442\/5941", "Representa": "COMISARIO HERNANDEZ CEFERINO SAUL" }, "geometry": { "type": "Point", "coordinates": [ -58.579342, -34.423394 ] } },
{ "type": "Feature", "properties": { "Dependencia": "Comisaría", "Organismo": "Ministerio de Seguridad", "Nombre": "CRIA.LA MATANZA NOROESTE 4TA", "Dirección": "CARABOBO NRO. 22", "Partido": "La Matanza", "Teléfono": "4669-0920\/0919", "Representa": "COMISARIO LIENDRO HECTOR DANIEL" }, "geometry": { "type": "Point", "coordinates": [ -58.602483, -34.679914 ] } },
{ "type": "Feature", "properties": { "Dependencia": "Comisaría", "Organismo": "Ministerio de Seguridad", "Nombre": "CRIA.TRES DE FEBRERO 11RA", "Dirección": "TOLEDO N° 2105", "Partido": "Tres de Febrero", "Teléfono": "01147398709\/43", "Representa": "COMISARIO AGUILAR ROLANDO CARLOS" }, "geometry": { "type": "Point", "coordinates": [ -58.62259039, -34.56580491 ] } },
{ "type": "Feature", "properties": { "Dependencia": "Comisaría", "Organismo": "Ministerio de Seguridad", "Nombre": "CRIA.MALVINAS ARGENTINAS 2DA", "Dirección": "PERITO MORENO E\/ DON BOSCO Y TRES ARROYOS", "Partido": "Malvinas Argentinas", "Teléfono": "01146603210\/0053\/011-46633836\/44560198", "Representa": "COMISARIO LEMMA JAVIER ADRIAN" }, "geometry": { "type": "Point", "coordinates": [ -58.687929, -34.498511 ] } },
{ "type": "Feature", "properties": { "Dependencia": "Comisaría", "Organismo": "Ministerio de Seguridad", "Nombre": "CRIA.MERLO 5TA", "Dirección": "BOSTON Y SAN PABLO", "Partido": "Merlo", "Teléfono": "0220-4920222\/4922870", "Representa": "COMISARIO AULETTA GUSTAVO FABIAN" }, "geometry": { "type": "Point", "coordinates": [ -58.699565, -34.749305 ] } },
{ "type": "Feature", "properties": { "Dependencia": "Comisaría", "Organismo": "Ministerio de Seguridad", "Nombre": "CRIA.NECOCHEA 2DA", "Dirección": "527 Nº 2448", "Partido": "Necochea", "Teléfono": "0226254008\/452508", "Representa": "COMISARIO MAINERI OSCAR ALMIR" }, "geometry": { "type": "Point", "coordinates": [ -58.709066, -38.556088 ] } },
{ "type": "Feature", "properties": { "Dependencia": "Comisaría", "Organismo": "Ministerio de Seguridad", "Nombre": "CRIA.NECOCHEA 3RA", "Dirección": "8 Nº 4157", "Partido": "Necochea", "Teléfono": "02262425413\/421725", "Representa": "COMISARIO URRESTARAZU TANGORRA MARTIN" }, "geometry": { "type": "Point", "coordinates": [ -58.731644, -38.579929 ] } },
{ "type": "Feature", "properties": { "Dependencia": "Comisaría", "Organismo": "Ministerio de Seguridad", "Nombre": "CRIA.MALVINAS ARGENTINAS 1RA", "Dirección": "SAN MARTIN 534", "Partido": "Malvinas Argentinas", "Teléfono": "02320480171\/1769\/5600", "Representa": "COMISARIO ALVAREZ CLAUDIO NORBERTO" }, "geometry": { "type": "Point", "coordinates": [ -58.736853, -34.491726 ] } },
{ "type": "Feature", "properties": { "Dependencia": "Comisaría", "Organismo": "Ministerio de Seguridad", "Nombre": "CRIA.NECOCHEA 1RA", "Dirección": "58 N  3068", "Partido": "Necochea", "Teléfono": "02262425473\/422039", "Representa": "SUBCOMISARIO JUAN CARLOS ALBERTO" }, "geometry": { "type": "Point", "coordinates": [ -58.740871, -38.555639 ] } },
{ "type": "Feature", "properties": { "Dependencia": "Comisaría", "Organismo": "Ministerio de Seguridad", "Nombre": "CRIA.MORENO 1RA", "Dirección": "BELGRANO NRO. 336", "Partido": "Moreno", "Teléfono": "023746203338\/4665462", "Representa": "COMISARIO TORRES LINDOLFO GUSTAVO" }, "geometry": { "type": "Point", "coordinates": [ -58.787934, -34.648264 ] } },
{ "type": "Feature", "properties": { "Dependencia": "Comisaría", "Organismo": "Ministerio de Seguridad", "Nombre": "CRIA.MERLO 6TA", "Dirección": "BALBIN, RICARDO (R.200 KM 40) E\/ VARELA Y TAGLE", "Partido": "Merlo", "Teléfono": "0220-4996777\/4894061", "Representa": "COMISARIO GUIDO ALEJANDRO HERNAN" }, "geometry": { "type": "Point", "coordinates": [ -58.790159, -34.72156 ] } },
{ "type": "Feature", "properties": { "Dependencia": "Comisaría", "Organismo": "Ministerio de Seguridad", "Nombre": "SUBCRIA.MATHEU", "Dirección": "CANESI 245", "Partido": "Escobar", "Teléfono": "3484461311\/03488-460827", "Representa": "OFICIAL PRINCIPAL GELVES RAUL MAXIMILIANO" }, "geometry": { "type": "Point", "coordinates": [ -58.82832777, -34.38254815 ] } },
{ "type": "Feature", "properties": { "Dependencia": "Comisaría", "Organismo": "Ministerio de Seguridad", "Nombre": "CRIA.PILAR 1RA", "Dirección": "TUCUMAN 575", "Partido": "Pilar", "Teléfono": "2304430130\/30041", "Representa": "COMISARIO BARICALLA SERGIO MARCELO" }, "geometry": { "type": "Point", "coordinates": [ -58.91290645, -34.45572112 ] } },
{ "type": "Feature", "properties": { "Dependencia": "Comisaría", "Organismo": "Ministerio de Seguridad", "Nombre": "CRIA.GRAL.RODRIGUEZ 2DA", "Dirección": "CABRAL Y ALMAFUERTE", "Partido": "General Rodríguez", "Teléfono": "02374841521\/3301\/3302", "Representa": "COMISARIO LASERNA WALTER CRISTIAN" }, "geometry": { "type": "Point", "coordinates": [ -58.923219, -34.622399 ] } },
{ "type": "Feature", "properties": { "Dependencia": "Comisaría", "Organismo": "Ministerio de Seguridad", "Nombre": "EST.POL.COM.CAPILLA DEL SEÑOR", "Dirección": "FAHY 475", "Partido": "Exaltación de la Cruz", "Teléfono": "02323491333\/491929", "Representa": "SUBCOMISARIO OJUEZ FERNANDO OSCAR" }, "geometry": { "type": "Point", "coordinates": [ -59.10340884, -34.29014122 ] } },
{ "type": "Feature", "properties": { "Dependencia": "Comisaría", "Organismo": "Ministerio de Seguridad", "Nombre": "EST.POL.COM.GRAL.ALVEAR", "Dirección": "SAN MARTIN 935", "Partido": "General Alvear", "Teléfono": "2344481500\/2344481501", "Representa": "COMISARIO IGUERATEGUI CARLOS RAFAEL" }, "geometry": { "type": "Point", "coordinates": [ -60.015311, -36.022679 ] } },
{ "type": "Feature", "properties": { "Dependencia": "Comisaría", "Organismo": "Ministerio de Seguridad", "Nombre": "SUBCRIA.PEREZ MILLAN", "Dirección": "MANFREDI E\/ FUNDADORES Y MORENO", "Partido": "Ramallo", "Teléfono": "3329492032", "Representa": "SUBCOMISARIO ALMEIDA MAXIMILIANO HUGO" }, "geometry": { "type": "Point", "coordinates": [ -60.09389888, -33.77137936 ] } },
{ "type": "Feature", "properties": { "Dependencia": "Comisaría", "Organismo": "Ministerio de Seguridad", "Nombre": "EST.POL.COM.TRES ARROYOS 1RA", "Dirección": "PRINGLES 66", "Partido": "Tres Arroyos", "Teléfono": "2983423333", "Representa": "" }, "geometry": { "type": "Point", "coordinates": [ -60.2773615, -38.37653974 ] } },
{ "type": "Feature", "properties": { "Dependencia": "Comisaría", "Organismo": "Ministerio de Seguridad", "Nombre": "SUBCRIA.LOMA NEGRA", "Dirección": "FORTABAT N° 1593", "Partido": "Olavarría", "Teléfono": "2284495330", "Representa": "" }, "geometry": { "type": "Point", "coordinates": [ -60.31334006, -36.91582113 ] } },
{ "type": "Feature", "properties": { "Dependencia": "Comisaría", "Organismo": "Ministerio de Seguridad", "Nombre": "EST.POL.COM.CHACABUCO", "Dirección": "SAN JUAN 25", "Partido": "Chacabuco", "Teléfono": "2352431120\/2352431166\/2352428629", "Representa": "SUBCOMISARIO ABELEYRA PABLO JAVIER" }, "geometry": { "type": "Point", "coordinates": [ -60.46495008, -34.64236865 ] } },
{ "type": "Feature", "properties": { "Dependencia": "Comisaría", "Organismo": "Ministerio de Seguridad", "Nombre": "CRIA.CARLOS CASARES", "Dirección": "SAN MARTIN 328", "Partido": "Carlos Casares", "Teléfono": "02395-452428\/454522", "Representa": "COMISARIO NOBLE CLAUDIO DARIO" }, "geometry": { "type": "Point", "coordinates": [ -61.36633133, -35.62281837 ] } },
{ "type": "Feature", "properties": { "Dependencia": "Comisaría", "Organismo": "Ministerio de Seguridad", "Nombre": "CRIA.BAHIA BLANCA 6TA.", "Dirección": "LIBERTAD 2212 (EX SUBCRIA VILLA ROSAS)", "Partido": "Bahía Blanca", "Teléfono": "0291 455-3011", "Representa": "SUBCOMISARIO CEMINO PABLO NESTOR" }, "geometry": { "type": "Point", "coordinates": [ -62.26319961, -38.75826334 ] } },
{ "type": "Feature", "properties": { "Dependencia": "Comisaría", "Organismo": "Ministerio de Seguridad", "Nombre": "EST.POL.COM.GUAMINI 2DA", "Dirección": "SAN MARTIN 145", "Partido": "Guaminí", "Teléfono": "2929480616\/2929480667\/2929480013\/2929480512", "Representa": "COMISARIO HERRERO GERMAN DAVID" }, "geometry": { "type": "Point", "coordinates": [ -62.41332667, -37.01713234 ] } },
{ "type": "Feature", "properties": { "Dependencia": "Comisaría", "Organismo": "Ministerio de Seguridad", "Nombre": "CRIA.DE LA COSTA 4TA", "Dirección": "ESQUI 450 ", "Partido": "La Costa", "Teléfono": "02257-460200", "Representa": "COMISARIO LEYES RICARDO RUBEN" }, "geometry": { "type": "Point", "coordinates": [ -56.67943002, -36.69472696 ] } },
{ "type": "Feature", "properties": { "Dependencia": "Comisaría", "Organismo": "Ministerio de Seguridad", "Nombre": "CRIA.DE LA COSTA 2DA", "Dirección": "LIBERTADOR 609", "Partido": "La Costa", "Teléfono": "02257-420013\/ 73", "Representa": "COMISARIO SALA RUBEN HORACIO" }, "geometry": { "type": "Point", "coordinates": [ -56.681043, -36.721324 ] } },
{ "type": "Feature", "properties": { "Dependencia": "Comisaría", "Organismo": "Ministerio de Seguridad", "Nombre": "SUBCRIA.NUEVA ATLANTIS", "Dirección": "ROLDAN Y DIAG AYACUCHO", "Partido": "La Costa", "Teléfono": "0225-7451022", "Representa": "SUBCOMISARIO AGUILERA RODRIGUEZ JAVIER A." }, "geometry": { "type": "Point", "coordinates": [ -56.68775415, -36.76381227 ] } },
{ "type": "Feature", "properties": { "Dependencia": "Comisaría", "Organismo": "Ministerio de Seguridad", "Nombre": "CRIA.DE LA COSTA 1RA", "Dirección": "41 Y 3 ", "Partido": "La Costa", "Teléfono": "02246-420227\/422925", "Representa": "COMISARIO HEREDIA SANDRO JULIO E." }, "geometry": { "type": "Point", "coordinates": [ -56.69146915, -36.54417997 ] } },
{ "type": "Feature", "properties": { "Dependencia": "Comisaría", "Organismo": "Ministerio de Seguridad", "Nombre": "CRIA.D.L.COSTA 6TA LAS TONINAS", "Dirección": "CALLE 1 E\/ CALLE 24 Y CALLE 26", "Partido": "La Costa", "Teléfono": "2246431868", "Representa": "SUBCOMISARIO HARISGARAT JORGE GASTON" }, "geometry": { "type": "Point", "coordinates": [ -56.6916428, -36.4881915 ] } },
{ "type": "Feature", "properties": { "Dependencia": "Comisaría", "Organismo": "Ministerio de Seguridad", "Nombre": "CRIA.DE LA COSTA 5TA", "Dirección": "74 ENTRE 3 Y 4  ", "Partido": "La Costa", "Teléfono": "02246-434600", "Representa": "COMISARIO MARTINEZ DIEGO MARIANO" }, "geometry": { "type": "Point", "coordinates": [ -56.69237049, -36.57637967 ] } },
{ "type": "Feature", "properties": { "Dependencia": "Comisaría", "Organismo": "Ministerio de Seguridad", "Nombre": "SUBCRIA.COSTA DEL ESTE", "Dirección": "2 Y LOS ALELIES", "Partido": "La Costa", "Teléfono": "2246434303", "Representa": "COMISARIO BISIGNANO OMAR ESTEBAN" }, "geometry": { "type": "Point", "coordinates": [ -56.70006218, -36.60555646 ] } },
{ "type": "Feature", "properties": { "Dependencia": "Comisaría", "Organismo": "Ministerio de Seguridad", "Nombre": "CRIA.DE LA COSTA 3RA", "Dirección": "AVE SAN MARTIN NRO 581", "Partido": "La Costa", "Teléfono": "02252-421815 \/ 013", "Representa": "COMISARIO FACIO ESTEBAN GERMAN" }, "geometry": { "type": "Point", "coordinates": [ -56.726489, -36.358502 ] } },
{ "type": "Feature", "properties": { "Dependencia": "Comisaría", "Organismo": "Ministerio de Seguridad", "Nombre": "EST.POL.COM.PAVON", "Dirección": "CUARTEL IV", "Partido": "General Lavalle", "Teléfono": "2257457090\/02257-429055", "Representa": "SUBCOMISARIO DATTOMA VICTOR EDUARDO" }, "geometry": { "type": "Point", "coordinates": [ -56.73363033, -36.69335365 ] } },
{ "type": "Feature", "properties": { "Dependencia": "Comisaría", "Organismo": "Ministerio de Seguridad", "Nombre": "EST.POL.COM.PINAMAR", "Dirección": "JUPITER Y AVE ARQ JORGE BUNGE", "Partido": "Pinamar", "Teléfono": "02254-491204\/08\/01\/02", "Representa": "COMISARIO ROBLES GERARDO OSCAR" }, "geometry": { "type": "Point", "coordinates": [ -56.871358, -37.111503 ] } },
{ "type": "Feature", "properties": { "Dependencia": "Comisaría", "Organismo": "Ministerio de Seguridad", "Nombre": "EST.POL.COM.PINAMAR 3RA-V.MAR", "Dirección": "CORBETA JULIETA Y BATHURS", "Partido": "Pinamar", "Teléfono": "", "Representa": "COMISARIO ACOSTA MARCELO JAVIER" }, "geometry": { "type": "Point", "coordinates": [ -56.88621011, -37.14756205 ] } },
{ "type": "Feature", "properties": { "Dependencia": "Comisaría", "Organismo": "Ministerio de Seguridad", "Nombre": "EST.POL.COM.PINAMAR 2DA", "Dirección": "ANSPACH Y AYACUCHO", "Partido": "Pinamar", "Teléfono": "2254491226\/2254491224", "Representa": "COMISARIO GOMEZ LUIS ALEJANDRO" }, "geometry": { "type": "Point", "coordinates": [ -56.89678056, -37.12988524 ] } },
{ "type": "Feature", "properties": { "Dependencia": "Comisaría", "Organismo": "Ministerio de Seguridad", "Nombre": "", "Dirección": "MITRE 986", "Partido": "General Lavalle", "Teléfono": "2252491099\/2252491234", "Representa": "" }, "geometry": { "type": "Point", "coordinates": [ -56.93865386, -36.40804399 ] } },
{ "type": "Feature", "properties": { "Dependencia": "Comisaría", "Organismo": "Ministerio de Seguridad", "Nombre": "EST.POL.COM.VILLA GESELL 1RA", "Dirección": "PASEO 105 E\/ 4 Y 5", "Partido": "Villa Gesell", "Teléfono": "02255-462203\/463555", "Representa": "COMISARIO MORALES MARCELO GABRIEL" }, "geometry": { "type": "Point", "coordinates": [ -56.970797, -37.254746 ] } },
{ "type": "Feature", "properties": { "Dependencia": "Comisaría", "Organismo": "Ministerio de Seguridad", "Nombre": "EST.POL.COM.VILLA GESELL 2DA", "Dirección": "PASEO 141 E\/ 3 Y 4", "Partido": "Villa Gesell", "Teléfono": "02255-472203\/470381", "Representa": "SUBCOMISARIO MONTOYA EZEQUIEL LUIS RAMON" }, "geometry": { "type": "Point", "coordinates": [ -56.994915, -37.286438 ] } },
{ "type": "Feature", "properties": { "Dependencia": "Comisaría", "Organismo": "Ministerio de Seguridad", "Nombre": "EST.POL.COM.VILLA GESELL 3RA", "Dirección": "HOUSSAY Y DEL PLATA", "Partido": "Villa Gesell", "Teléfono": "2255468901", "Representa": "" }, "geometry": { "type": "Point", "coordinates": [ -57.02987344, -37.31717611 ] } },
{ "type": "Feature", "properties": { "Dependencia": "Comisaría", "Organismo": "Ministerio de Seguridad", "Nombre": "EST.POL.COM.GRAL.MADARIAGA", "Dirección": "IRIGOYEN 528", "Partido": "General Madariaga", "Teléfono": "02267421204\/4313", "Representa": "" }, "geometry": { "type": "Point", "coordinates": [ -57.133804, -36.99478 ] } },
{ "type": "Feature", "properties": { "Dependencia": "Comisaría", "Organismo": "Ministerio de Seguridad", "Nombre": "EST.POL.COM.PUNTA INDIO", "Dirección": "34 Y 23", "Partido": "Punta Indio", "Teléfono": "2221481366\/2221481777\/2221480440", "Representa": "SUBCOMISARIO ERCEG GUSTAVO ANTONIO" }, "geometry": { "type": "Point", "coordinates": [ -57.343012, -35.38708 ] } },
{ "type": "Feature", "properties": { "Dependencia": "Comisaría", "Organismo": "Ministerio de Seguridad", "Nombre": "EST.POL.COM.SANTA CLARA DEL M.", "Dirección": "ACAPULCO N° 5 Y DEL ARROYO", "Partido": "Mar Chiquita", "Teléfono": "2234693602\/2234602386", "Representa": "COMISARIO CORBELA PAULO ANIBAL" }, "geometry": { "type": "Point", "coordinates": [ -57.50827747, -37.8466987 ] } },
{ "type": "Feature", "properties": { "Dependencia": "Comisaría", "Organismo": "Ministerio de Seguridad", "Nombre": "EST.POL.COM.MAGDALENA", "Dirección": "YRIGOYEN 1001", "Partido": "Magdalena", "Teléfono": "02221-452413\/452473", "Representa": "SUBCOMISARIO IBARRA MARCELO EZEQUIEL" }, "geometry": { "type": "Point", "coordinates": [ -57.51744, -35.081333 ] } },
{ "type": "Feature", "properties": { "Dependencia": "Comisaría", "Organismo": "Ministerio de Seguridad", "Nombre": "CRIA.MAR DEL PLATA 15TA", "Dirección": "RUTA 11 KM22- GENERAL PUEYRREDON", "Partido": "General Pueyrredón", "Teléfono": "0223-4715225\/ 5226", "Representa": "COMISARIO BELFIORE MIGUEL ANGEL" }, "geometry": { "type": "Point", "coordinates": [ -57.529982, -37.928395 ] } },
{ "type": "Feature", "properties": { "Dependencia": "Comisaría", "Organismo": "Ministerio de Seguridad", "Nombre": "SUBCRIA.CASINO", "Dirección": "BVAR MARITIMO Y LAS HERAS", "Partido": "General Pueyrredón", "Teléfono": "2234920027", "Representa": "SUBCOMISARIO GARCIA HUGO ESTEBAN NAZARENO" }, "geometry": { "type": "Point", "coordinates": [ -57.54166, -38.006499 ] } },
{ "type": "Feature", "properties": { "Dependencia": "Comisaría", "Organismo": "Ministerio de Seguridad", "Nombre": "CRIA.MAR DEL PLATA 5TA", "Dirección": "PUAN 2251 - GENERAL PUEYRREDON", "Partido": "General Pueyrredón", "Teléfono": "0223-4842578\/2328", "Representa": "COMISARIO HARISMENDI OSCAR LEONARDO" }, "geometry": { "type": "Point", "coordinates": [ -57.552052, -38.062069 ] } },
{ "type": "Feature", "properties": { "Dependencia": "Comisaría", "Organismo": "Ministerio de Seguridad", "Nombre": "CRIA.MAR DEL PLATA 1RA", "Dirección": "AVE INDEPENDENCIA 1751", "Partido": "General Pueyrredón", "Teléfono": "02234949880\/2234947515\/2234911242", "Representa": "COMISARIO VULCANO EDGARDO ANDRES" }, "geometry": { "type": "Point", "coordinates": [ -57.55321, -37.996838 ] } },
{ "type": "Feature", "properties": { "Dependencia": "Comisaría", "Organismo": "Ministerio de Seguridad", "Nombre": "CRIA.MAR DEL PLATA 7MA", "Dirección": "JOAQUIN V GONZALEZ Y ACEVEDO - GENERAL PUEYRREDON", "Partido": "General Pueyrredón", "Teléfono": "0223-4791316\/ 5332", "Representa": "COMISARIO ROBLEDO GABRIEL LUIS" }, "geometry": { "type": "Point", "coordinates": [ -57.561557, -37.954609 ] } },
{ "type": "Feature", "properties": { "Dependencia": "Comisaría", "Organismo": "Ministerio de Seguridad", "Nombre": "CRIA.MAR DEL PLATA 13RA", "Dirección": "RUTA PROV 11 KM 22 Y PLAYA SERENA GENERAL PUEYRREDON", "Partido": "General Pueyrredón", "Teléfono": "0223-4672555", "Representa": "SUBCOMISARIO DIPERNA CARLOS ALBERTO" }, "geometry": { "type": "Point", "coordinates": [ -57.576454, -38.109115 ] } },
{ "type": "Feature", "properties": { "Dependencia": "Comisaría", "Organismo": "Ministerio de Seguridad", "Nombre": "CRIA.MAR DEL PLATA 4TA", "Dirección": "CHILE Y ALBERTI - GENERAL PUEYRREDON", "Partido": "General Pueyrredón", "Teléfono": "0223-4784291\/475-9357", "Representa": "COMISARIO DANIEL CHRISTIAN GUSTAVO" }, "geometry": { "type": "Point", "coordinates": [ -57.581191, -37.992482 ] } },
{ "type": "Feature", "properties": { "Dependencia": "Comisaría", "Organismo": "Ministerio de Seguridad", "Nombre": "CRIA.MAR DEL PLATA 6TA", "Dirección": "REP DEL LIBANO 1130 - GENERAL PUEYRREDON", "Partido": "General Pueyrredón", "Teléfono": "0223-4775044\/4701168", "Representa": "COMISARIO HEREDIA EDGAR MARCELO" }, "geometry": { "type": "Point", "coordinates": [ -57.584388, -37.974029 ] } },
{ "type": "Feature", "properties": { "Dependencia": "Comisaría", "Organismo": "Ministerio de Seguridad", "Nombre": "CRIA.MAR DEL PLATA 16TA", "Dirección": "CAMUZZO 1567", "Partido": "General Pueyrredón", "Teléfono": "02234811602\/4812638", "Representa": "COMISARIO FONTANA CRISTIAN DANIEL" }, "geometry": { "type": "Point", "coordinates": [ -57.596344, -38.020465 ] } },
{ "type": "Feature", "properties": { "Dependencia": "Comisaría", "Organismo": "Ministerio de Seguridad", "Nombre": "SUBCRIA.CAMET", "Dirección": "LA LAURA Y MOYANO (MOYANO 1550)", "Partido": "General Pueyrredón", "Teléfono": "2234600102\/02234600101", "Representa": "SUBCOMISARIO CRUZ LORENA VERONICA" }, "geometry": { "type": "Point", "coordinates": [ -57.60360475, -37.88859646 ] } },
{ "type": "Feature", "properties": { "Dependencia": "Comisaría", "Organismo": "Ministerio de Seguridad", "Nombre": "CRIA.MAR DEL PLATA 12DA", "Dirección": "BOLIVAR Y LEGUIZAMON - GENERAL PUEYRREDON", "Partido": "General Pueyrredón", "Teléfono": "0223-4875513", "Representa": "SUBCOMISARIO LOPEZ SILVIO FABIAN" }, "geometry": { "type": "Point", "coordinates": [ -57.613809, -37.970132 ] } },
{ "type": "Feature", "properties": { "Dependencia": "Comisaría", "Organismo": "Ministerio de Seguridad", "Nombre": "CRIA.MAR DEL PLATA 11RA", "Dirección": "180 Y ORTIZ DE ZARATE - GENERAL PUEYRREDON", "Partido": "General Pueyrredón", "Teléfono": "0223-4652549", "Representa": "COMISARIO BONOLDI OSVALDO JULIAN" }, "geometry": { "type": "Point", "coordinates": [ -57.614839, -37.996425 ] } },
{ "type": "Feature", "properties": { "Dependencia": "Comisaría", "Organismo": "Ministerio de Seguridad", "Nombre": "SUBCRIA.PARQUE HERMOSO", "Dirección": "190 Y 69 - GENERAL PUEYRREDON", "Partido": "General Pueyrredón", "Teléfono": "0223-4651288", "Representa": "SUBCOMISARIO CAÑETE CLAUDIO GABRIEL" }, "geometry": { "type": "Point", "coordinates": [ -57.626165, -38.023041 ] } },
{ "type": "Feature", "properties": { "Dependencia": "Comisaría", "Organismo": "Ministerio de Seguridad", "Nombre": "CRIA.MAR DEL PLATA 8VA", "Dirección": "RUTA 88 KM 13 - GENERAL PUEYRREDON", "Partido": "General Pueyrredón", "Teléfono": "0223-4642244", "Representa": "COMISARIO SENRRA LUIS ALBERTO" }, "geometry": { "type": "Point", "coordinates": [ -57.705066, -38.007481 ] } },
{ "type": "Feature", "properties": { "Dependencia": "Comisaría", "Organismo": "Ministerio de Seguridad", "Nombre": "EST.POL.COM.MAR CHIQUITA", "Dirección": "EZEIZA N° 599", "Partido": "Mar Chiquita", "Teléfono": "2265432253\/2265432325", "Representa": "COMISARIO FIGUEROA DARIO IGNACIO" }, "geometry": { "type": "Point", "coordinates": [ -57.72742137, -37.44460911 ] } },
{ "type": "Feature", "properties": { "Dependencia": "Comisaría", "Organismo": "Ministerio de Seguridad", "Nombre": "CRIA.MAR DEL PLATA 14TA", "Dirección": "RUTA NAC 226 KM 17 - GENERAL PUEYRREDON", "Partido": "General Pueyrredón", "Teléfono": "0223-4630113", "Representa": "COMISARIO ARIZALA ADRIAN ALFREDO" }, "geometry": { "type": "Point", "coordinates": [ -57.760032, -37.909687 ] } },
{ "type": "Feature", "properties": { "Dependencia": "Comisaría", "Organismo": "Ministerio de Seguridad", "Nombre": "CRIA.GRAL.GUIDO", "Dirección": "BELGRANO Y CEPEDA - GENERAL GUIDO", "Partido": "General Guido", "Teléfono": "02268-491019\/491110", "Representa": "SUBCOMISARIO NOGUEIRA RUBEN HORACIO" }, "geometry": { "type": "Point", "coordinates": [ -57.791262, -36.642258 ] } },
{ "type": "Feature", "properties": { "Dependencia": "Comisaría", "Organismo": "Ministerio de Seguridad", "Nombre": "EST.POL.COM.CASTELLI", "Dirección": "SAN MARTIN Y CARLOS PELLEGRINI", "Partido": "Castelli", "Teléfono": "02245-480113\/481111", "Representa": "COMISARIO DOMENICHELLI LEANDRO GABRIEL" }, "geometry": { "type": "Point", "coordinates": [ -57.81255319, -36.09350371 ] } },
{ "type": "Feature", "properties": { "Dependencia": "Comisaría", "Organismo": "Ministerio de Seguridad", "Nombre": "EST.POL.COM.GRAL.ALVARADO", "Dirección": " MITRE 1137", "Partido": "General Alvarado", "Teléfono": "2291420613\/02291421548", "Representa": "" }, "geometry": { "type": "Point", "coordinates": [ -57.839761, -38.27264 ] } },
{ "type": "Feature", "properties": { "Dependencia": "Comisaría", "Organismo": "Ministerio de Seguridad", "Nombre": "CRIA.BERISSO 2DA", "Dirección": "AV. MONTEVIDEO NRO. 3491", "Partido": "Berisso", "Teléfono": "0221-4620707\/0211", "Representa": "SUBCOMISARIO GALLO LEONARDO GABRIEL" }, "geometry": { "type": "Point", "coordinates": [ -57.851174, -34.878161 ] } },
{ "type": "Feature", "properties": { "Dependencia": "Comisaría", "Organismo": "Ministerio de Seguridad", "Nombre": "EST.POL.COM.MAIPU", "Dirección": "RIVADAVIA 340", "Partido": "Maipú", "Teléfono": "02268-421115", "Representa": "SUBCOMISARIO UVIEDO DARIO NAZARENO" }, "geometry": { "type": "Point", "coordinates": [ -57.881098, -36.862881 ] } },
{ "type": "Feature", "properties": { "Dependencia": "Comisaría", "Organismo": "Ministerio de Seguridad", "Nombre": "CRIA.BERISSO 3RA", "Dirección": "126 Y 35", "Partido": "Berisso", "Teléfono": "0221-4862831\/7127", "Representa": "SUBCOMISARIO PASSERINI MOUSSEGNE CHRISTIAN" }, "geometry": { "type": "Point", "coordinates": [ -57.887263, -34.928756 ] } },
{ "type": "Feature", "properties": { "Dependencia": "Comisaría", "Organismo": "Ministerio de Seguridad", "Nombre": "EST.POL.COM.LEZAMA", "Dirección": "RIVADAVIA Y SAN MARTIN", "Partido": "Lezama", "Teléfono": "02242-432103\/432107", "Representa": "SUBCOMISARIO MEDLEY PABLO GERMAN" }, "geometry": { "type": "Point", "coordinates": [ -57.89432226, -35.87521995 ] } },
{ "type": "Feature", "properties": { "Dependencia": "Comisaría", "Organismo": "Ministerio de Seguridad", "Nombre": "CRIA.ENSENADA 1RA", "Dirección": "CESTINO E\/ SIDOTTI Y SAN MARTIN", "Partido": "Ensenada", "Teléfono": "0221-4691111\/2223", "Representa": "SUBCOMISARIO PERERA MAXIMILIANO JAVIER" }, "geometry": { "type": "Point", "coordinates": [ -57.902431, -34.863006 ] } },
{ "type": "Feature", "properties": { "Dependencia": "Comisaría", "Organismo": "Ministerio de Seguridad", "Nombre": "CRIA.LA PLATA 16TA", "Dirección": "121 E\/ 81 Y 82", "Partido": "La Plata", "Teléfono": "2214574553", "Representa": "" }, "geometry": { "type": "Point", "coordinates": [ -57.90464, -34.926172 ] } },
{ "type": "Feature", "properties": { "Dependencia": "Comisaría", "Organismo": "Ministerio de Seguridad", "Nombre": "SUBCRIA.ARANA", "Dirección": "640 Y 141", "Partido": "La Plata", "Teléfono": "0221-4910316", "Representa": "" }, "geometry": { "type": "Point", "coordinates": [ -57.90536168, -35.00482637 ] } },
{ "type": "Feature", "properties": { "Dependencia": "Comisaría", "Organismo": "Ministerio de Seguridad", "Nombre": "CRIA.BERISSO 4TA", "Dirección": "6 E\/ 125 Y 124", "Partido": "Berisso", "Teléfono": "0221-4231924\/4276558", "Representa": "COMISARIO ROLDAN MIGUEL ANGEL" }, "geometry": { "type": "Point", "coordinates": [ -57.921939, -34.906956 ] } },
{ "type": "Feature", "properties": { "Dependencia": "Comisaría", "Organismo": "Ministerio de Seguridad", "Nombre": "CRIA.LA PLATA 8VA", "Dirección": "7 E\/ 75 Y 74", "Partido": "La Plata", "Teléfono": "0221-4577124\/ 5\/ 4524322", "Representa": "COMISARIO CASA MARTIN RAFAEL BONIFACIO" }, "geometry": { "type": "Point", "coordinates": [ -57.92513, -34.932709 ] } },
{ "type": "Feature", "properties": { "Dependencia": "Comisaría", "Organismo": "Ministerio de Seguridad", "Nombre": "CRIA.ENSENADA 3RA", "Dirección": "47 E\/ 122 Y 123", "Partido": "Ensenada", "Teléfono": "0221-4231743\/4245654", "Representa": "SUBCOMISARIO DIGIACOMO CRISTIAN ANDRES" }, "geometry": { "type": "Point", "coordinates": [ -57.937604, -34.898685 ] } },
{ "type": "Feature", "properties": { "Dependencia": "Comisaría", "Organismo": "Ministerio de Seguridad", "Nombre": "CRIA.LA PLATA 9NA", "Dirección": "5 E\/ 59 Y 60", "Partido": "La Plata", "Teléfono": "0221-4231953\/54\/4213978", "Representa": "SUBCOMISARIO SAEZ MATIAS ALFREDO" }, "geometry": { "type": "Point", "coordinates": [ -57.940087, -34.91812 ] } },
{ "type": "Feature", "properties": { "Dependencia": "Comisaría", "Organismo": "Ministerio de Seguridad", "Nombre": "CRIA.LA PLATA 1RA", "Dirección": "AV. 53 e\/ 10 y 9", "Partido": "La Plata", "Teléfono": "0221-423-1945\/6", "Representa": "" }, "geometry": { "type": "Point", "coordinates": [ -57.95055002, -34.91894484 ] } },
{ "type": "Feature", "properties": { "Dependencia": "Comisaría", "Organismo": "Ministerio de Seguridad", "Nombre": "CRIA.LA PLATA 2DA", "Dirección": "38 E\/ 7 Y 8", "Partido": "La Plata", "Teléfono": "0221-4231947\/48\/4230649", "Representa": "COMISARIO TOLABA ALBERTO DANIEL" }, "geometry": { "type": "Point", "coordinates": [ -57.963126, -34.906217 ] } },
{ "type": "Feature", "properties": { "Dependencia": "Comisaría", "Organismo": "Ministerio de Seguridad", "Nombre": "CRIA.LA PLATA 6TA", "Dirección": "1 E\/ 527 Y 528", "Partido": "La Plata", "Teléfono": "2214258063\/4231952\/4231951", "Representa": "COMISARIO INSPECTOR CABIRON MARTIN ANDRES" }, "geometry": { "type": "Point", "coordinates": [ -57.966389, -34.892078 ] } },
{ "type": "Feature", "properties": { "Dependencia": "Comisaría", "Organismo": "Ministerio de Seguridad", "Nombre": "CRIA.LA PLATA 4TA", "Dirección": "DIAG. 73 E\/ 21 Y 22", "Partido": "La Plata", "Teléfono": "0221-4231949\/50", "Representa": "COMISARIO SANCHEZ CARLOS DARIO" }, "geometry": { "type": "Point", "coordinates": [ -57.972949, -34.921877 ] } },
{ "type": "Feature", "properties": { "Dependencia": "Comisaría", "Organismo": "Ministerio de Seguridad", "Nombre": "CRIA.LA PLATA 11RA", "Dirección": "530 E\/ 14 Y 15", "Partido": "La Plata", "Teléfono": "2214270544\/4231955", "Representa": "SUBCOMISARIO VIZCARRA JUAN JOSE" }, "geometry": { "type": "Point", "coordinates": [ -57.978855, -34.905771 ] } },
{ "type": "Feature", "properties": { "Dependencia": "Comisaría", "Organismo": "Ministerio de Seguridad", "Nombre": "CRIA.ENSENADA 2DA", "Dirección": "BROWN, ALTE. E\/ 94 Y 92", "Partido": "Ensenada", "Teléfono": "0221-4661447\/1234", "Representa": "COMISARIO TORALES GUSTAVO GABRIEL" }, "geometry": { "type": "Point", "coordinates": [ -57.979922, -34.812855 ] } },
{ "type": "Feature", "properties": { "Dependencia": "Comisaría", "Organismo": "Ministerio de Seguridad", "Nombre": "EST.POL.COM.CHASCOMUS 1RA", "Dirección": "LASTRA Y SARMIENTO", "Partido": "Chascomús", "Teléfono": "02241-422515\/423901", "Representa": "SUBCOMISARIO IRAZU CESAR PABLO" }, "geometry": { "type": "Point", "coordinates": [ -58.014428, -35.577861 ] } },
{ "type": "Feature", "properties": { "Dependencia": "Comisaría", "Organismo": "Ministerio de Seguridad", "Nombre": "SUBCRIA.HERNANDEZ", "Dirección": "511 ENTRE 29 Y 30", "Partido": "La Plata", "Teléfono": "2214715492", "Representa": "SUBCOMISARIO BENITEZ FRANCISCO JAVIER" }, "geometry": { "type": "Point", "coordinates": [ -58.01565249, -34.90354186 ] } },
{ "type": "Feature", "properties": { "Dependencia": "Comisaría", "Organismo": "Ministerio de Seguridad", "Nombre": "CRIA.LA PLATA 10MA", "Dirección": "2 E\/ 12 Y 13", "Partido": "La Plata", "Teléfono": "2214721366\/4722928\/4722909", "Representa": "COMISARIO CLAURE JUAN ANGEL DANIEL" }, "geometry": { "type": "Point", "coordinates": [ -58.048434, -34.871829 ] } },
{ "type": "Feature", "properties": { "Dependencia": "Comisaría", "Organismo": "Ministerio de Seguridad", "Nombre": "CRIA.LA PLATA 15TA", "Dirección": "AVE 44 NRO. 5350", "Partido": "La Plata", "Teléfono": "022-4963036", "Representa": "SUBCOMISARIO QUINTANA FERNANDO ROBERTO" }, "geometry": { "type": "Point", "coordinates": [ -58.053611, -35.000519 ] } },
{ "type": "Feature", "properties": { "Dependencia": "Comisaría", "Organismo": "Ministerio de Seguridad", "Nombre": "CRIA.LA PLATA 7MA", "Dirección": "520 E\/ 213 Y 212", "Partido": "La Plata", "Teléfono": "0221-4913300\/3500\/6300", "Representa": "COMISARIO SOLER JUAN SEBASTIAN" }, "geometry": { "type": "Point", "coordinates": [ -58.091457, -34.989132 ] } },
{ "type": "Feature", "properties": { "Dependencia": "Comisaría", "Organismo": "Ministerio de Seguridad", "Nombre": "EST.POL.COM.PILA", "Dirección": "7 E\/ 4 Y 6", "Partido": "Pila", "Teléfono": "02242-498231", "Representa": "SUBCOMISARIO SAN MARTIN GASTON" }, "geometry": { "type": "Point", "coordinates": [ -58.139262, -36.005283 ] } },
{ "type": "Feature", "properties": { "Dependencia": "Comisaría", "Organismo": "Ministerio de Seguridad", "Nombre": "CRIA.BERAZATEGUI 5TA", "Dirección": "537 E\/ 613 Y 611", "Partido": "Berazategui", "Teléfono": "02229-491512\/491111", "Representa": "SUBCOMISARIO QUINTANA CLAUDIO RUBEN" }, "geometry": { "type": "Point", "coordinates": [ -58.172219, -34.87899 ] } },
{ "type": "Feature", "properties": { "Dependencia": "Comisaría", "Organismo": "Ministerio de Seguridad", "Nombre": "CRIA.BERAZATEGUI 3RA", "Dirección": "415 E\/ 457A Y 458", "Partido": "Berazategui", "Teléfono": "02229-452485\/441094", "Representa": "COMISARIO INSPECTOR PAOLA LEONARDO JAVIER" }, "geometry": { "type": "Point", "coordinates": [ -58.182001, -34.832245 ] } },
{ "type": "Feature", "properties": { "Dependencia": "Comisaría", "Organismo": "Ministerio de Seguridad", "Nombre": "CRIA.BERAZATEGUI 4TA", "Dirección": "52B HERMELO E\/ 135 Y 134", "Partido": "Berazategui", "Teléfono": "02229-440476\/440606", "Representa": "SUBCOMISARIO KAUFMANN JORGE OMAR" }, "geometry": { "type": "Point", "coordinates": [ -58.183064, -34.806274 ] } },
{ "type": "Feature", "properties": { "Dependencia": "Comisaría", "Organismo": "Ministerio de Seguridad", "Nombre": "CRIA.BERAZATEGUI 2DA", "Dirección": "364 E\/ 311 Y 312A", "Partido": "Berazategui", "Teléfono": "011-42588788\/8551\/", "Representa": "SUBCOMISARIO OVIEDO CARLOS OSCAR" }, "geometry": { "type": "Point", "coordinates": [ -58.198017, -34.789786 ] } },
{ "type": "Feature", "properties": { "Dependencia": "Comisaría", "Organismo": "Ministerio de Seguridad", "Nombre": "CRIA.BERAZATEGUI 1RA", "Dirección": "11 E\/ 147 Y 148", "Partido": "Berazategui", "Teléfono": "011-42561133\/2532", "Representa": "COMISARIO RODRIGUEZ RAMON ANTONIO" }, "geometry": { "type": "Point", "coordinates": [ -58.212306, -34.759203 ] } },
{ "type": "Feature", "properties": { "Dependencia": "Comisaría", "Organismo": "Ministerio de Seguridad", "Nombre": "CRIA.FLORENCIO VARELA 4TA", "Dirección": "LOS POETAS E\/ GONZALEZ, JOAQUIN V. Y RUBEN DARIO", "Partido": "Florencio Varela", "Teléfono": "1142214122", "Representa": "COMISARIO LANZA CARLOS DANIEL" }, "geometry": { "type": "Point", "coordinates": [ -58.226658, -34.825827 ] } },
{ "type": "Feature", "properties": { "Dependencia": "Comisaría", "Organismo": "Ministerio de Seguridad", "Nombre": "CRIA.QUILMES 6TA", "Dirección": "CUENCA NRO. 5165", "Partido": "Quilmes", "Teléfono": "011-42561144\/42161876", "Representa": "SUBCOMISARIO RISSO CARLOS MARTIN" }, "geometry": { "type": "Point", "coordinates": [ -58.232287, -34.749252 ] } },
{ "type": "Feature", "properties": { "Dependencia": "Comisaría", "Organismo": "Ministerio de Seguridad", "Nombre": "CRIA.QUILMES 1RA", "Dirección": "SARMIENTO E\/ RIVADAVIA Y ALEM", "Partido": "Quilmes", "Teléfono": "011-4254-2724", "Representa": "COMISARIO KAPUST ALEJANDRO MAXIMILIANO" }, "geometry": { "type": "Point", "coordinates": [ -58.253245, -34.720874 ] } },
{ "type": "Feature", "properties": { "Dependencia": "Comisaría", "Organismo": "Ministerio de Seguridad", "Nombre": "EST.POL.COM.BALCARCE", "Dirección": "URIBURU 670", "Partido": "Balcarce", "Teléfono": "02266-424013\/423705", "Representa": "" }, "geometry": { "type": "Point", "coordinates": [ -58.253996, -37.847447 ] } },
{ "type": "Feature", "properties": { "Dependencia": "Comisaría", "Organismo": "Ministerio de Seguridad", "Nombre": "CRIA.QUILMES 3RA", "Dirección": "12 DE OCTUBRE NRO. 55", "Partido": "Quilmes", "Teléfono": "011-42534444\/2520", "Representa": "COMISARIO NUÑEZ JUAN RAMON" }, "geometry": { "type": "Point", "coordinates": [ -58.260069, -34.727612 ] } },
{ "type": "Feature", "properties": { "Dependencia": "Comisaría", "Organismo": "Ministerio de Seguridad", "Nombre": "CRIA.FLORENCIO VARELA 3RA", "Dirección": "AV. SENZABELLO E\/ NECOCHEA Y PARRAVECINI", "Partido": "Florencio Varela", "Teléfono": "1142553855", "Representa": "COMISARIO FERNANDEZ RAUL ANGEL" }, "geometry": { "type": "Point", "coordinates": [ -58.262319, -34.789852 ] } },
{ "type": "Feature", "properties": { "Dependencia": "Comisaría", "Organismo": "Ministerio de Seguridad", "Nombre": "CRIA.FLORENCIO VARELA 5TA", "Dirección": "RUTA 53 E\/ FIGUEROA ALCORTA Y AV. ROCA", "Partido": "Florencio Varela", "Teléfono": "02225498314\/498097", "Representa": "COMISARIO MALDONADO FABIAN EMILIO" }, "geometry": { "type": "Point", "coordinates": [ -58.266732, -34.920996 ] } },
{ "type": "Feature", "properties": { "Dependencia": "Comisaría", "Organismo": "Ministerio de Seguridad", "Nombre": "CRIA.QUILMES 8VA", "Dirección": "PARANA NRO. 230", "Partido": "Quilmes", "Teléfono": "011-4252-8152\/0677", "Representa": "COMISARIO COCH MIGUEL ANGEL" }, "geometry": { "type": "Point", "coordinates": [ -58.270626, -34.707895 ] } },
{ "type": "Feature", "properties": { "Dependencia": "Comisaría", "Organismo": "Ministerio de Seguridad", "Nombre": "CRIA.FLORENCIO VARELA 1RA", "Dirección": "AV. SAN MARTIN E\/ AYACUCHO Y NEWBERY, JORGE", "Partido": "Florencio Varela", "Teléfono": "1142551412", "Representa": "COMISARIO FERREIRA SERGIO GUSTAVO" }, "geometry": { "type": "Point", "coordinates": [ -58.278449, -34.806439 ] } },
{ "type": "Feature", "properties": { "Dependencia": "Comisaría", "Organismo": "Ministerio de Seguridad", "Nombre": "CRIA.QUILMES 9NA", "Dirección": "GUTIERREZ (336) E\/ ROCA, ARGENTINO (382) Y BLANCO,", "Partido": "Quilmes", "Teléfono": "011-42009000\/8143", "Representa": "COMISARIO DARNET ARIEL GUSTAVO" }, "geometry": { "type": "Point", "coordinates": [ -58.283062, -34.758892 ] } },
{ "type": "Feature", "properties": { "Dependencia": "Comisaría", "Organismo": "Ministerio de Seguridad", "Nombre": "CRIA.QUILMES 2DA", "Dirección": "25 DE MAYO NRO. 87", "Partido": "Quilmes", "Teléfono": "011-4251-8147\/48", "Representa": "SUBCOMISARIO RUDAKOFF TOMAS ANTONIO" }, "geometry": { "type": "Point", "coordinates": [ -58.283093, -34.710424 ] } },
{ "type": "Feature", "properties": { "Dependencia": "Comisaría", "Organismo": "Ministerio de Seguridad", "Nombre": "SUBCRIA.DOMSELAAR", "Dirección": "FLORENTINO AMEGHINO Y BELGRANO", "Partido": "San Vicente", "Teléfono": "2225491237", "Representa": "SUBCOMISARIO PANATTI MARCOS JAVIER" }, "geometry": { "type": "Point", "coordinates": [ -58.29301777, -35.07401796 ] } },
{ "type": "Feature", "properties": { "Dependencia": "Comisaría", "Organismo": "Ministerio de Seguridad", "Nombre": "SUBCRIA.DON BOSCO", "Dirección": "PILCOMAYO E\/ MAIPU Y AYACUCHO", "Partido": "Quilmes", "Teléfono": "1142522701", "Representa": "SUBCOMISARIO AYALA JOSE ALBERTO" }, "geometry": { "type": "Point", "coordinates": [ -58.301602, -34.703719 ] } },
{ "type": "Feature", "properties": { "Dependencia": "Comisaría", "Organismo": "Ministerio de Seguridad", "Nombre": "CRIA.FLORENCIO VARELA 2DA", "Dirección": "MARTIN FIERRO E\/ EL ALJIBE Y EL GAUCHO", "Partido": "Florencio Varela", "Teléfono": "1142552686", "Representa": "COMISARIO DONADIO SERGIO WALTER" }, "geometry": { "type": "Point", "coordinates": [ -58.302328, -34.805837 ] } },
{ "type": "Feature", "properties": { "Dependencia": "Comisaría", "Organismo": "Ministerio de Seguridad", "Nombre": "CRIA.QUILMES 5TA", "Dirección": "MOSCONI E\/ JUJUY Y LA RIOJA", "Partido": "Quilmes", "Teléfono": "011-42511845\/1854", "Representa": "COMISARIO MURUCHI CARLOS ERNESTO" }, "geometry": { "type": "Point", "coordinates": [ -58.303145, -34.731742 ] } },
{ "type": "Feature", "properties": { "Dependencia": "Comisaría", "Organismo": "Ministerio de Seguridad", "Nombre": "CRIA.QUILMES 7MA", "Dirección": "162 E\/ PAMPA Y LOS ANDES", "Partido": "Quilmes", "Teléfono": "011-42700848\/0310", "Representa": "SUBCOMISARIO RUIZ RICARDO FERNANDO" }, "geometry": { "type": "Point", "coordinates": [ -58.313475, -34.717356 ] } },
{ "type": "Feature", "properties": { "Dependencia": "Comisaría", "Organismo": "Ministerio de Seguridad", "Nombre": "CRIA.AVELLANEDA 5TA", "Dirección": "LAS FLORES NRO. 363", "Partido": "Avellaneda", "Teléfono": "011-4207-0375\/4444", "Representa": "SUBCOMISARIO VILLALBA ROLANDO JAVIER" }, "geometry": { "type": "Point", "coordinates": [ -58.313558, -34.70091 ] } },
{ "type": "Feature", "properties": { "Dependencia": "Comisaría", "Organismo": "Ministerio de Seguridad", "Nombre": "EST.POL.COM.GENERAL PAZ", "Dirección": "CAMPOMAR 2970", "Partido": "General Paz", "Teléfono": "2241481004\/2241481134", "Representa": "SUBCOMISARIO PAZ FERNANDO ARIEL" }, "geometry": { "type": "Point", "coordinates": [ -58.315516, -35.516589 ] } },
{ "type": "Feature", "properties": { "Dependencia": "Comisaría", "Organismo": "Ministerio de Seguridad", "Nombre": "CRIA.ALMIRANTE BROWN 10MA", "Dirección": "MARGARITA Y ROSA", "Partido": "Almirante Brown", "Teléfono": "1142771000", "Representa": "COMISARIO AGUIRRE ALEJANDRO GABRIEL" }, "geometry": { "type": "Point", "coordinates": [ -58.32001568, -34.78809259 ] } },
{ "type": "Feature", "properties": { "Dependencia": "Comisaría", "Organismo": "Ministerio de Seguridad", "Nombre": "CRIA.ALMIRANTE BROWN 6TA", "Dirección": "BOLLINI NRO. 650", "Partido": "Almirante Brown", "Teléfono": "1142911390", "Representa": "SUBCOMISARIO SANCHEZ CRISTIAN DARIO" }, "geometry": { "type": "Point", "coordinates": [ -58.33497, -34.79867 ] } },
{ "type": "Feature", "properties": { "Dependencia": "Comisaría", "Organismo": "Ministerio de Seguridad", "Nombre": "CRIA.AVELLANEDA 4TA", "Dirección": "LUJAN E\/ AV. MITRE Y BRANDSEN", "Partido": "Avellaneda", "Teléfono": "011-4207-7809\/3333", "Representa": "" }, "geometry": { "type": "Point", "coordinates": [ -58.341667, -34.686299 ] } },
{ "type": "Feature", "properties": { "Dependencia": "Comisaría", "Organismo": "Ministerio de Seguridad", "Nombre": "CRIA.AVELLANEDA 3RA", "Dirección": "DEBENEDETTI E\/ HUERGO Y CAMPANA", "Partido": "Avellaneda", "Teléfono": "011-42036706", "Representa": "SUBCOMISARIO OVEJERO CLAUDIO ALBERTO" }, "geometry": { "type": "Point", "coordinates": [ -58.343752, -34.657899 ] } },
{ "type": "Feature", "properties": { "Dependencia": "Comisaría", "Organismo": "Ministerio de Seguridad", "Nombre": "CRIA.AVELLANEDA 7MA", "Dirección": "OYUELAS Y CASACUBERTA", "Partido": "Avellaneda", "Teléfono": "011-4227-5656\/7799", "Representa": "SUBCOMISARIO HERRERA SILVIO RODRIGO" }, "geometry": { "type": "Point", "coordinates": [ -58.34759, -34.703826 ] } },
{ "type": "Feature", "properties": { "Dependencia": "Comisaría", "Organismo": "Ministerio de Seguridad", "Nombre": "CRIA.LANUS 6TA", "Dirección": "MONASTERIO E\/ GUIDO, GRAL. Y CAAGUAZU", "Partido": "Lanús", "Teléfono": "011-42466224\/8218", "Representa": "SUBCOMISARIO BALSYS FABIAN ANTONIO" }, "geometry": { "type": "Point", "coordinates": [ -58.347839, -34.732276 ] } },
{ "type": "Feature", "properties": { "Dependencia": "Comisaría", "Organismo": "Ministerio de Seguridad", "Nombre": "CRIA.ALMIRANTE BROWN 8VA", "Dirección": "RIO IGUAZU ENTRE RIO BLANCO Y RIO TUNUYAN- ALMIRANTE BROWN", "Partido": "Almirante Brown", "Teléfono": "1142685104", "Representa": "SUBCOMISARIO LOPEZ JUAN OSVALDO" }, "geometry": { "type": "Point", "coordinates": [ -58.349809, -34.819316 ] } },
{ "type": "Feature", "properties": { "Dependencia": "Comisaría", "Organismo": "Ministerio de Seguridad", "Nombre": "CRIA.ALMIRANTE BROWN 5TA", "Dirección": "DARDO ROCHA E\/ AGUERO, JULIAN Y GUEMES", "Partido": "Almirante Brown", "Teléfono": "1142911444", "Representa": "COMISARIO SPALLETTA OMAR FELIPE" }, "geometry": { "type": "Point", "coordinates": [ -58.355689, -34.798119 ] } },
{ "type": "Feature", "properties": { "Dependencia": "Comisaría", "Organismo": "Ministerio de Seguridad", "Nombre": "CRIA.LOMAS DE ZAMORA 6TA", "Dirección": "GOLONDRINA NRO. 2950", "Partido": "Lomas de Zamora", "Teléfono": "01142648777\/42046774", "Representa": "COMISARIO CORDOBA SERGIO LUIS" }, "geometry": { "type": "Point", "coordinates": [ -58.360398, -34.765516 ] } },
{ "type": "Feature", "properties": { "Dependencia": "Comisaría", "Organismo": "Ministerio de Seguridad", "Nombre": "CRIA.LANUS 8VA", "Dirección": "GRAL PICO E\/ MONTEVIDEO, S. DE Y ITUZAINGO", "Partido": "Lanús", "Teléfono": "011-42465129\/42209087", "Representa": "COMISARIO MEDINA CARLOS ALBERTO" }, "geometry": { "type": "Point", "coordinates": [ -58.366321, -34.723169 ] } },
{ "type": "Feature", "properties": { "Dependencia": "Comisaría", "Organismo": "Ministerio de Seguridad", "Nombre": "CRIA.ALMIRANTE BROWN 9NA", "Dirección": "BYNON NRO. 3137", "Partido": "Almirante Brown", "Teléfono": "42196435\/42194017\/42194018", "Representa": "SUBCOMISARIO ARCE FABIAN DARIO" }, "geometry": { "type": "Point", "coordinates": [ -58.367178, -34.78554 ] } },
{ "type": "Feature", "properties": { "Dependencia": "Comisaría", "Organismo": "Ministerio de Seguridad", "Nombre": "CRIA.AVELLANEDA 1RA", "Dirección": "LAVALLE E\/ AV. PALAA Y AV. BELGRANO", "Partido": "Avellaneda", "Teléfono": "011-4222-2929", "Representa": "COMISARIO RAMIREZ JUAN ARIEL" }, "geometry": { "type": "Point", "coordinates": [ -58.367915, -34.664141 ] } },
{ "type": "Feature", "properties": { "Dependencia": "Comisaría", "Organismo": "Ministerio de Seguridad", "Nombre": "CRIA.AVELLANEDA 6TA", "Dirección": "CARABELAS E\/ ELIZALDE Y DONOVAN", "Partido": "Avellaneda", "Teléfono": "011-42053138\/42044444", "Representa": "SUBCOMISARIO FERREYRA ERNESTO FABIAN" }, "geometry": { "type": "Point", "coordinates": [ -58.372389, -34.687223 ] } },
{ "type": "Feature", "properties": { "Dependencia": "Comisaría", "Organismo": "Ministerio de Seguridad", "Nombre": "CRIA.PTE.PERON", "Dirección": "9 Y 35", "Partido": "Presidente Perón", "Teléfono": "02224-471206", "Representa": "COMISARIO GARCIA RAUL ALEJANDRO" }, "geometry": { "type": "Point", "coordinates": [ -58.3738177, -34.91830204 ] } },
{ "type": "Feature", "properties": { "Dependencia": "Comisaría", "Organismo": "Ministerio de Seguridad", "Nombre": "CRIA.SAN VICENTE 2DA", "Dirección": "MITRE E\/ SALTA Y RACONE", "Partido": "San Vicente", "Teléfono": "02225-421115\/423524", "Representa": "SUBCOMISARIO BOGADO RAMON ARTURO" }, "geometry": { "type": "Point", "coordinates": [ -58.374623, -34.986381 ] } },
{ "type": "Feature", "properties": { "Dependencia": "Comisaría", "Organismo": "Ministerio de Seguridad", "Nombre": "CRIA.LANUS 10MA", "Dirección": "AGUILAR NRO. 3635", "Partido": "Lanús", "Teléfono": "011-42468344\/4220", "Representa": "COMISARIO VICENTE ROLANDO CLAUDIO" }, "geometry": { "type": "Point", "coordinates": [ -58.3749, -34.736396 ] } },
{ "type": "Feature", "properties": { "Dependencia": "Comisaría", "Organismo": "Ministerio de Seguridad", "Nombre": "CRIA.AVELLANEDA 2DA", "Dirección": "GIRIBONE NRO. 495", "Partido": "Avellaneda", "Teléfono": "01142038460 \/ 42019131", "Representa": "SUBCOMISARIO DELGADO SERGIO GUSTAVO" }, "geometry": { "type": "Point", "coordinates": [ -58.377957, -34.661562 ] } },
{ "type": "Feature", "properties": { "Dependencia": "Comisaría", "Organismo": "Ministerio de Seguridad", "Nombre": "CRIA.LOMAS DE ZAMORA 8VA", "Dirección": "IRIARTE E\/ ZEBALLO Y GONZALEZ, J.B.", "Partido": "Lomas de Zamora", "Teléfono": "01142443344\/42436865", "Representa": "COMISARIO MOCCHETTI RICARDO DANIEL" }, "geometry": { "type": "Point", "coordinates": [ -58.379937, -34.763582 ] } },
{ "type": "Feature", "properties": { "Dependencia": "Comisaría", "Organismo": "Ministerio de Seguridad", "Nombre": "CRIA.LANUS 2DA", "Dirección": "O'HIGGINS E\/ MONTEVIDEO, S. Y ITUZAINGO", "Partido": "Lanús", "Teléfono": "011-42412382\/3333", "Representa": "SUBCOMISARIO GONZALEZ EMANUEL JUAN PABLO" }, "geometry": { "type": "Point", "coordinates": [ -58.38733, -34.708123 ] } },
{ "type": "Feature", "properties": { "Dependencia": "Comisaría", "Organismo": "Ministerio de Seguridad", "Nombre": "CRIA.ALMIRANTE BROWN 4TA", "Dirección": "AV. AVIACION NRO. 461", "Partido": "Almirante Brown", "Teléfono": "1142970084", "Representa": "COMISARIO DOTTORI CRISTIAN ANDRES" }, "geometry": { "type": "Point", "coordinates": [ -58.388383, -34.856294 ] } },
{ "type": "Feature", "properties": { "Dependencia": "Comisaría", "Organismo": "Ministerio de Seguridad", "Nombre": "CRIA.ALMIRANTE BROWN 2DA", "Dirección": "9 DE JULIO E\/ AV. ESPORA Y QUINTANA", "Partido": "Almirante Brown", "Teléfono": "1142990444", "Representa": "COMISARIO LOPEZ RAUL" }, "geometry": { "type": "Point", "coordinates": [ -58.388965, -34.82053 ] } },
{ "type": "Feature", "properties": { "Dependencia": "Comisaría", "Organismo": "Ministerio de Seguridad", "Nombre": "CRIA.ALMIRANTE BROWN 7MA", "Dirección": "SARMIENTO NRO. 498", "Partido": "Almirante Brown", "Teléfono": "0222442 2283", "Representa": "" }, "geometry": { "type": "Point", "coordinates": [ -58.389711, -34.893162 ] } },
{ "type": "Feature", "properties": { "Dependencia": "Comisaría", "Organismo": "Ministerio de Seguridad", "Nombre": "CRIA.LANUS 1RA", "Dirección": "D. VALLE IBERLUCEA NRO. 2818", "Partido": "Lanús", "Teléfono": "011-42410049\/42479604", "Representa": "COMISARIO MARIN MARTIN HUGO" }, "geometry": { "type": "Point", "coordinates": [ -58.393039, -34.703967 ] } },
{ "type": "Feature", "properties": { "Dependencia": "Comisaría", "Organismo": "Ministerio de Seguridad", "Nombre": "CRIA.LOMAS DE ZAMORA 2DA", "Dirección": "VERGARA, VALENTIN E\/ GASCON Y CHACABUCO", "Partido": "Lomas de Zamora", "Teléfono": "01142424444\/42423333", "Representa": "SUBCOMISARIO QUINTANA RICARDO" }, "geometry": { "type": "Point", "coordinates": [ -58.395005, -34.746195 ] } },
{ "type": "Feature", "properties": { "Dependencia": "Comisaría", "Organismo": "Ministerio de Seguridad", "Nombre": "CRIA.LOMAS DE ZAMORA 3RA", "Dirección": "STA MARIA DE ORO NRO. 330", "Partido": "Lomas de Zamora", "Teléfono": "01142434086\/42444444", "Representa": "COMISARIO MENDEZ NESTOR MAURICIO" }, "geometry": { "type": "Point", "coordinates": [ -58.39512, -34.778526 ] } },
{ "type": "Feature", "properties": { "Dependencia": "Comisaría", "Organismo": "Ministerio de Seguridad", "Nombre": "CRIA.LANUS 4TA", "Dirección": "MASPERO NRO. 99", "Partido": "Lanús", "Teléfono": "011-42416205\/42414000", "Representa": "COMISARIO VEGA JUAN JOSE" }, "geometry": { "type": "Point", "coordinates": [ -58.396034, -34.72347 ] } },
{ "type": "Feature", "properties": { "Dependencia": "Comisaría", "Organismo": "Ministerio de Seguridad", "Nombre": "CRIA.LOMAS DE ZAMORA 1RA", "Dirección": "ALEM E\/ PORTELA Y SAENZ", "Partido": "Lomas de Zamora", "Teléfono": "01142452570\/42433333", "Representa": "SUBCOMISARIO MORANO OSVALDO ERNESTO" }, "geometry": { "type": "Point", "coordinates": [ -58.399357, -34.758192 ] } },
{ "type": "Feature", "properties": { "Dependencia": "Comisaría", "Organismo": "Ministerio de Seguridad", "Nombre": "CRIA.LANUS 7MA", "Dirección": "D'ELIA, CNEL. E\/ PLAUL, SANTIAGO Y LA RIOJA", "Partido": "Lanús", "Teléfono": "011-42625633\/5790\/6413", "Representa": "SUBCOMISARIO PONCE LUIS ANGEL" }, "geometry": { "type": "Point", "coordinates": [ -58.408874, -34.690406 ] } },
{ "type": "Feature", "properties": { "Dependencia": "Comisaría", "Organismo": "Ministerio de Seguridad", "Nombre": "CRIA.LANUS 3RA", "Dirección": "YATAY NRO. 553", "Partido": "Lanús", "Teléfono": "011-4228-8902\/4208-4444", "Representa": "COMISARIO MATUCHESKI FABIO SEBASTIAN" }, "geometry": { "type": "Point", "coordinates": [ -58.412579, -34.667623 ] } },
{ "type": "Feature", "properties": { "Dependencia": "Comisaría", "Organismo": "Ministerio de Seguridad", "Nombre": "CRIA.LANUS 9NA", "Dirección": "FERNANDEZ, ENRIQUE NRO. 3635", "Partido": "Lanús", "Teléfono": "011-42626372\/0304\/6351", "Representa": "COMISARIO GODOY DUILIO MAXIMILIANO" }, "geometry": { "type": "Point", "coordinates": [ -58.416574, -34.699339 ] } },
{ "type": "Feature", "properties": { "Dependencia": "Comisaría", "Organismo": "Ministerio de Seguridad", "Nombre": "CRIA.SAN VICENTE 1RA", "Dirección": "AV. 25 DE MAYO E\/ AV. BIOCCA Y CHACABUCO", "Partido": "San Vicente", "Teléfono": "02225-481037\/481418", "Representa": "COMISARIO BOGADO DANIEL AURELIANO" }, "geometry": { "type": "Point", "coordinates": [ -58.419566, -35.021377 ] } },
{ "type": "Feature", "properties": { "Dependencia": "Comisaría", "Organismo": "Ministerio de Seguridad", "Nombre": "CRIA.LANUS 5TA", "Dirección": "WARNES NRO. 3077", "Partido": "Lanús", "Teléfono": "011-42184606\/4208-3344", "Representa": "SUBCOMISARIO MUÑOZ OSVALDO CESAR" }, "geometry": { "type": "Point", "coordinates": [ -58.423111, -34.684526 ] } },
{ "type": "Feature", "properties": { "Dependencia": "Comisaría", "Organismo": "Ministerio de Seguridad", "Nombre": "CRIA.LOMAS DE ZAMORA 4TA", "Dirección": "EUSKAL ECHEA NRO. 277", "Partido": "Lomas de Zamora", "Teléfono": "01142986100\/42986200", "Representa": "SUBCOMISARIO VINAY FABIAN EDUARDO" }, "geometry": { "type": "Point", "coordinates": [ -58.425585, -34.801127 ] } },
{ "type": "Feature", "properties": { "Dependencia": "Comisaría", "Organismo": "Ministerio de Seguridad", "Nombre": "CRIA.LOMAS DE ZAMORA 9NA", "Dirección": "FALUCHO NRO. 84", "Partido": "Lomas de Zamora", "Teléfono": "01142824433\/42820497", "Representa": "SUBCOMISARIO MOYANO DIEGO ALFREDO" }, "geometry": { "type": "Point", "coordinates": [ -58.433878, -34.766627 ] } },
{ "type": "Feature", "properties": { "Dependencia": "Comisaría", "Organismo": "Ministerio de Seguridad", "Nombre": "CRIA.LOMAS DE ZAMORA 5TA", "Dirección": "NECOL NRO. 326", "Partido": "Lomas de Zamora", "Teléfono": "01142863538\/42863575", "Representa": "COMISARIO RAMIREZ DEL VALLE MARCOS DAVID" }, "geometry": { "type": "Point", "coordinates": [ -58.438131, -34.706072 ] } },
{ "type": "Feature", "properties": { "Dependencia": "Comisaría", "Organismo": "Ministerio de Seguridad", "Nombre": "CRIA.ESTEBAN ECHEVERRIA 2DA", "Dirección": "TTE RETTES E\/ ALMAFUERTE Y GONZALEZ, URBANO", "Partido": "Esteban Echeverría", "Teléfono": "01142903376\/42900573", "Representa": "SUBCOMISARIO MOURELLI HUGO ORLANDO" }, "geometry": { "type": "Point", "coordinates": [ -58.455319, -34.79797 ] } },
{ "type": "Feature", "properties": { "Dependencia": "Comisaría", "Organismo": "Ministerio de Seguridad", "Nombre": "CRIA.LOMAS DE ZAMORA 10MA", "Dirección": "RIVERA SUR E\/ COSQUIN Y CAMINO NEGRO", "Partido": "Lomas de Zamora", "Teléfono": "01142851792\/42851786", "Representa": "SUBCOMISARIO SOSA LUIS ISMAEL" }, "geometry": { "type": "Point", "coordinates": [ -58.45991, -34.706679 ] } },
{ "type": "Feature", "properties": { "Dependencia": "Comisaría", "Organismo": "Ministerio de Seguridad", "Nombre": "CRIA.ESTEBAN ECHEVERRIA 1RA", "Dirección": "SANTAMARINA, SOFIA NRO. 474", "Partido": "Esteban Echeverría", "Teléfono": "01142900123\/42900333", "Representa": "COMISARIO GATTI JULIO MARCELO" }, "geometry": { "type": "Point", "coordinates": [ -58.471895, -34.822508 ] } },
{ "type": "Feature", "properties": { "Dependencia": "Comisaría", "Organismo": "Ministerio de Seguridad", "Nombre": "CRIA.VICENTE LOPEZ 5TA", "Dirección": "AV. LIBERTADOR E\/ MELO Y VERNET", "Partido": "Vicente López", "Teléfono": "1145136020", "Representa": "SUBCOMISARIO CABRERA MIGUEL ANGEL" }, "geometry": { "type": "Point", "coordinates": [ -58.472079, -34.524747 ] } },
{ "type": "Feature", "properties": { "Dependencia": "Comisaría", "Organismo": "Ministerio de Seguridad", "Nombre": "SUBCRIA.25 DE MAYO", "Dirección": "MARIANO ALEGRE Y NICOLAS BRUZONE", "Partido": "Esteban Echeverría", "Teléfono": "1142817164", "Representa": "" }, "geometry": { "type": "Point", "coordinates": [ -58.47244552, -34.80673165 ] } },
{ "type": "Feature", "properties": { "Dependencia": "Comisaría", "Organismo": "Ministerio de Seguridad", "Nombre": "CRIA.ESTEBAN ECHEVERRIA 3RA", "Dirección": "CNO DE CINTURA NRO. 6098", "Partido": "Esteban Echeverría", "Teléfono": "01146933003\/46933004\/4693-3733", "Representa": "COMISARIO BARRIENTOS FERNANDO HUGO" }, "geometry": { "type": "Point", "coordinates": [ -58.485758, -34.754928 ] } },
{ "type": "Feature", "properties": { "Dependencia": "Comisaría", "Organismo": "Ministerio de Seguridad", "Nombre": "CRIA.LA MATANZA NORESTE 6TA", "Dirección": "UGARTE, MARTIN E\/ OLAVARRIA Y AGUERO", "Partido": "La Matanza", "Teléfono": "4622-4000\/4444\/5550\/4433\/4422", "Representa": "SUBCOMISARIO PAULONI JUAN GABRIEL" }, "geometry": { "type": "Point", "coordinates": [ -58.487704, -34.698221 ] } },
{ "type": "Feature", "properties": { "Dependencia": "Comisaría", "Organismo": "Ministerio de Seguridad", "Nombre": "CRIA.SAN ISIDRO 4TA", "Dirección": "BALCARCE E\/ MARTINEZ, L. Y ALVEAR, GRAL.", "Partido": "San Isidro", "Teléfono": "1145122444\/1145122216\/011-45122349\/2218", "Representa": "COMISARIO FORQUERA LEONARDO GUSTAVO" }, "geometry": { "type": "Point", "coordinates": [ -58.489988, -34.485247 ] } },
{ "type": "Feature", "properties": { "Dependencia": "Comisaría", "Organismo": "Ministerio de Seguridad", "Nombre": "EST.POL.COM.AYACUCHO", "Dirección": "MITRE 1152", "Partido": "Ayacucho", "Teléfono": "02296-452013 \/ 451567", "Representa": "" }, "geometry": { "type": "Point", "coordinates": [ -58.49076, -37.152972 ] } },
{ "type": "Feature", "properties": { "Dependencia": "Comisaría", "Organismo": "Ministerio de Seguridad", "Nombre": "CRIA.LA MATANZA NORESTE 5TA", "Dirección": "DE CIRCUNVALACION Y DEL TALLO", "Partido": "La Matanza", "Teléfono": "4480-5663\/5664\/5665-4442-7804C", "Representa": "SUBCOMISARIO GARRO JAVIER GASTON" }, "geometry": { "type": "Point", "coordinates": [ -58.492176, -34.705639 ] } },
{ "type": "Feature", "properties": { "Dependencia": "Comisaría", "Organismo": "Ministerio de Seguridad", "Nombre": "CRIA.ESTEBAN ECHEVERRIA 5TA", "Dirección": "ANGEL ROTA Y BARBERENA", "Partido": "Esteban Echeverría", "Teléfono": "42955147\/42955148\/42327862", "Representa": "COMISARIO CORDOVA CLAUDIO FELICIANO" }, "geometry": { "type": "Point", "coordinates": [ -58.493476, -34.833701 ] } },
{ "type": "Feature", "properties": { "Dependencia": "Comisaría", "Organismo": "Ministerio de Seguridad", "Nombre": "CRIA.ESTEBAN ECHEVERRIA 4TA", "Dirección": "CASTEX M. - RP 52 E\/ LAGO MASCARDI Y VIDAL", "Partido": "Esteban Echeverría", "Teléfono": "01142952222\/42321794\/42327500", "Representa": "SUBCOMISARIO SALAZAR JUAN JOSE" }, "geometry": { "type": "Point", "coordinates": [ -58.502337, -34.859968 ] } },
{ "type": "Feature", "properties": { "Dependencia": "Comisaría", "Organismo": "Ministerio de Seguridad", "Nombre": "EST.POL.COM.GRAL.BELGRANO", "Dirección": "RIVADAVIA 526", "Partido": "Gral. Belgrano", "Teléfono": "2243452113\/2243452291", "Representa": "SUBCOMISARIO MELINA CARLOS ALBERTO" }, "geometry": { "type": "Point", "coordinates": [ -58.50299758, -35.77068159 ] } },
{ "type": "Feature", "properties": { "Dependencia": "Comisaría", "Organismo": "Ministerio de Seguridad", "Nombre": "CRIA.SAN ISIDRO 2DA", "Dirección": "ITALIA E\/ RODRIGUEZ PE¥A Y YRIGOYEN, HIPOLITO", "Partido": "San Isidro", "Teléfono": "1145122342\/1145122442", "Representa": "" }, "geometry": { "type": "Point", "coordinates": [ -58.503538, -34.490447 ] } },
{ "type": "Feature", "properties": { "Dependencia": "Comisaría", "Organismo": "Ministerio de Seguridad", "Nombre": "CRIA.VICENTE LOPEZ 4TA", "Dirección": "AV. LAPRIDA E\/ GRECIA Y CHILE", "Partido": "Vicente López", "Teléfono": "1145131443\/1145131420\/1145131440", "Representa": "COMISARIO RODRIGUEZ HERNAN SEBASTIAN" }, "geometry": { "type": "Point", "coordinates": [ -58.503772, -34.547726 ] } },
{ "type": "Feature", "properties": { "Dependencia": "Comisaría", "Organismo": "Ministerio de Seguridad", "Nombre": "CRIA.LA MATANZA NORESTE 1RA", "Dirección": "PEDERNERA E\/ THOMPSON, M. Y CAGUAZU", "Partido": "La Matanza", "Teléfono": "4652-4444\/3000 4655-0969 4454-7059", "Representa": "SUBCOMISARIO RENO EDGARDO GERMAN" }, "geometry": { "type": "Point", "coordinates": [ -58.50386, -34.684854 ] } },
{ "type": "Feature", "properties": { "Dependencia": "Comisaría", "Organismo": "Ministerio de Seguridad", "Nombre": "CRIA.VICENTE LOPEZ 2DA", "Dirección": "AV SAN MARTIN E\/ ECHEVERRIA Y DEL CAMPO, ESTANISLA", "Partido": "Vicente López", "Teléfono": "1145131447\/1145131448\/1145131449", "Representa": "COMISARIO MARCEL RUBEN EDGARDO" }, "geometry": { "type": "Point", "coordinates": [ -58.504665, -34.534034 ] } },
{ "type": "Feature", "properties": { "Dependencia": "Comisaría", "Organismo": "Ministerio de Seguridad", "Nombre": "CRIA.LA MATANZA NORESTE 4TA", "Dirección": "ALTOLAGUIRRE E\/ JUNCAL Y TUYUTI", "Partido": "La Matanza", "Teléfono": "4442-3131 4462-2935", "Representa": "COMISARIO MARTINEZ JORGE ALEJANDRO" }, "geometry": { "type": "Point", "coordinates": [ -58.508271, -34.699388 ] } },
{ "type": "Feature", "properties": { "Dependencia": "Comisaría", "Organismo": "Ministerio de Seguridad", "Nombre": "CRIA.EZEIZA 6TA", "Dirección": "DELLEPIANE Y BARREIRO", "Partido": "Ezeiza", "Teléfono": "42952222", "Representa": "" }, "geometry": { "type": "Point", "coordinates": [ -58.50987695, -34.87678511 ] } },
{ "type": "Feature", "properties": { "Dependencia": "Comisaría", "Organismo": "Ministerio de Seguridad", "Nombre": "SUBCRIA.LOMA DE ROCA", "Dirección": "UZAL Y BORGES", "Partido": "Vicente López", "Teléfono": "1148971023", "Representa": "" }, "geometry": { "type": "Point", "coordinates": [ -58.5122199, -34.5166558 ] } },
{ "type": "Feature", "properties": { "Dependencia": "Comisaría", "Organismo": "Ministerio de Seguridad", "Nombre": "CRIA.SAN ISIDRO 1RA", "Dirección": "ALSINA E\/ GARIBALDI Y AV. CENTENARIO", "Partido": "San Isidro", "Teléfono": "1145130058\/1145130059", "Representa": "" }, "geometry": { "type": "Point", "coordinates": [ -58.515844, -34.472415 ] } },
{ "type": "Feature", "properties": { "Dependencia": "Comisaría", "Organismo": "Ministerio de Seguridad", "Nombre": "SUBCRIA.ALDO BONZI", "Dirección": "JOSE ALICO 1020 ALDO BONZI", "Partido": "La Matanza", "Teléfono": "011-44625533\/4442-0476", "Representa": "SUBCOMISARIO CORTEZ WALTER FABIAN" }, "geometry": { "type": "Point", "coordinates": [ -58.516811, -34.70769811 ] } },
{ "type": "Feature", "properties": { "Dependencia": "Comisaría", "Organismo": "Ministerio de Seguridad", "Nombre": "CRIA.SAN MARTIN 6TA", "Dirección": "LAVALLE E\/ MATHEU Y MITRE", "Partido": "General San Martín", "Teléfono": "011-45126084\/6776\/6702\/03", "Representa": "COMISARIO ZARCO LUIS ALBERTO" }, "geometry": { "type": "Point", "coordinates": [ -58.520354, -34.562056 ] } },
{ "type": "Feature", "properties": { "Dependencia": "Comisaría", "Organismo": "Ministerio de Seguridad", "Nombre": "CRIA.LA MATANZA ESTE 3RA", "Dirección": "EL PICAFLOR E\/ MOLLE Y LA CHOCA", "Partido": "La Matanza", "Teléfono": "46203333\/44872043", "Representa": "COMISARIO VALLEJOS VICTOR OMAR" }, "geometry": { "type": "Point", "coordinates": [ -58.522204, -34.734372 ] } },
{ "type": "Feature", "properties": { "Dependencia": "Comisaría", "Organismo": "Ministerio de Seguridad", "Nombre": "CRIA.EZEIZA 4TA", "Dirección": "LUGONES E\/ SPANO, GUIDO Y HERNANDEZ, J.", "Partido": "Ezeiza", "Teléfono": "011-4480-0918\/0371", "Representa": "" }, "geometry": { "type": "Point", "coordinates": [ -58.522784, -34.787788 ] } },
{ "type": "Feature", "properties": { "Dependencia": "Comisaría", "Organismo": "Ministerio de Seguridad", "Nombre": "CRIA.EZEIZA 1RA", "Dirección": "PRINCESA MAFALDA NRO. 255", "Partido": "Ezeiza", "Teléfono": "011-4295-0675\/6767", "Representa": "" }, "geometry": { "type": "Point", "coordinates": [ -58.525148, -34.853333 ] } },
{ "type": "Feature", "properties": { "Dependencia": "Comisaría", "Organismo": "Ministerio de Seguridad", "Nombre": "CRIA.SAN MARTIN 3RA", "Dirección": "GUIDO SPANO Y MONTEAGUDO", "Partido": "General San Martín", "Teléfono": "011-45126704", "Representa": "COMISARIO MARES DIEGO MARTIN" }, "geometry": { "type": "Point", "coordinates": [ -58.52517, -34.591961 ] } },
{ "type": "Feature", "properties": { "Dependencia": "Comisaría", "Organismo": "Ministerio de Seguridad", "Nombre": "CRIA.SAN ISIDRO 5TA", "Dirección": "POSADAS, GERVASIO E\/ AV. CENTENARIO Y GARIBALDI", "Partido": "San Isidro", "Teléfono": "1145130055\/1145130056\/1145130013\/36\/37", "Representa": "COMISARIO BRITES SERGIO ALBERTO" }, "geometry": { "type": "Point", "coordinates": [ -58.527105, -34.462003 ] } },
{ "type": "Feature", "properties": { "Dependencia": "Comisaría", "Organismo": "Ministerio de Seguridad", "Nombre": "CRIA.TRES DE FEBRERO 10MA", "Dirección": "POSADAS E\/ MOSCONI Y AMEGHINO", "Partido": "Tres de Febrero", "Teléfono": "01145133037\/38\/39\/43", "Representa": "COMISARIO HUBERTY DIEGO ANDRES" }, "geometry": { "type": "Point", "coordinates": [ -58.52724, -34.602717 ] } },
{ "type": "Feature", "properties": { "Dependencia": "Comisaría", "Organismo": "Ministerio de Seguridad", "Nombre": "CRIA.SAN ISIDRO 10MA", "Dirección": "HIPOLITO IRIGOYEN Y PANAMA", "Partido": "San Isidro", "Teléfono": "1147174342\/1147174284", "Representa": "SUBCOMISARIO ESPOSITO HERNAN JACINTO" }, "geometry": { "type": "Point", "coordinates": [ -58.52733, -34.501834 ] } },
{ "type": "Feature", "properties": { "Dependencia": "Comisaría", "Organismo": "Ministerio de Seguridad", "Nombre": "CRIA.SAN MARTIN 8VA", "Dirección": "4 DE FEBRERO E\/ CAMPOS Y ROSALIA", "Partido": "General San Martín", "Teléfono": "114512 21\/23", "Representa": "SUBCOMISARIO PEÑALVA SEBASTIAN GABRIEL" }, "geometry": { "type": "Point", "coordinates": [ -58.529062, -34.54874 ] } },
{ "type": "Feature", "properties": { "Dependencia": "Comisaría", "Organismo": "Ministerio de Seguridad", "Nombre": "CRIA.LA MATANZA NORESTE 3RA", "Dirección": "ALBERTI E\/ CATRIEL Y ALVEAR", "Partido": "La Matanza", "Teléfono": "4652-4106\/4936 4453-1007 4453-1316", "Representa": "COMISARIO GONZALEZ OSCAR ROBERTO" }, "geometry": { "type": "Point", "coordinates": [ -58.529377, -34.684029 ] } },
{ "type": "Feature", "properties": { "Dependencia": "Comisaría", "Organismo": "Ministerio de Seguridad", "Nombre": "CRIA.EZEIZA 5TA", "Dirección": "COSME ARGERICH NRO. 388", "Partido": "Ezeiza", "Teléfono": "011-43980777\/78", "Representa": "SUBCOMISARIO CORREA ABEL GREGORIO" }, "geometry": { "type": "Point", "coordinates": [ -58.530628, -34.870275 ] } },
{ "type": "Feature", "properties": { "Dependencia": "Comisaría", "Organismo": "Ministerio de Seguridad", "Nombre": "SUBCRIA.LA UNION", "Dirección": "137 Y 524 Y 525", "Partido": "Ezeiza", "Teléfono": "0221-4707676\/4709388", "Representa": "SUBCOMISARIO DE PAULIS GUSTAVO MARTIN" }, "geometry": { "type": "Point", "coordinates": [ -58.532388, -34.871914 ] } },
{ "type": "Feature", "properties": { "Dependencia": "Comisaría", "Organismo": "Ministerio de Seguridad", "Nombre": "CRIA.TRES DE FEBRERO 8VA", "Dirección": "RODRIGUEZ, FRAY C. E\/ INGENIEROS, JOSE Y GARIBALDI", "Partido": "Tres de Febrero", "Teléfono": "01145133031\/32\/42", "Representa": "COMISARIO MORENO MARCELO DANIEL" }, "geometry": { "type": "Point", "coordinates": [ -58.533379, -34.618147 ] } },
{ "type": "Feature", "properties": { "Dependencia": "Comisaría", "Organismo": "Ministerio de Seguridad", "Nombre": "CRIA.TRES DE FEBRERO 12DA", "Dirección": "ESTERO BELLACO N° 459", "Partido": "Tres de Febrero", "Teléfono": "1146531612", "Representa": "COMISARIO ROMERO MARIN ROLANDO ARIEL" }, "geometry": { "type": "Point", "coordinates": [ -58.53542297, -34.64554946 ] } },
{ "type": "Feature", "properties": { "Dependencia": "Comisaría", "Organismo": "Ministerio de Seguridad", "Nombre": "CRIA.VICENTE LOPEZ 6TA", "Dirección": "DRYSDALE E\/ CASTRO, R. Y CASTELLI", "Partido": "Vicente López", "Teléfono": "1145125137\/1145125568\/1145125556", "Representa": "COMISARIO AREVALO JOSE LUIS" }, "geometry": { "type": "Point", "coordinates": [ -58.53586, -34.527202 ] } },
{ "type": "Feature", "properties": { "Dependencia": "Comisaría", "Organismo": "Ministerio de Seguridad", "Nombre": "CRIA.TRES DE FEBRERO 3RA", "Dirección": "DR. CARBONE E\/ ESTRADA Y NEWTON", "Partido": "Tres de Febrero", "Teléfono": "01145133222\/3033\/34\/41", "Representa": "COMISARIO MACIEJOWSKI DANIEL MARCELO" }, "geometry": { "type": "Point", "coordinates": [ -58.540189, -34.601685 ] } },
{ "type": "Feature", "properties": { "Dependencia": "Comisaría", "Organismo": "Ministerio de Seguridad", "Nombre": "CRIA.SAN FERNANDO 3RA", "Dirección": "LAVALLE E\/ DORREGO Y PALACIOS", "Partido": "San Fernando", "Teléfono": "1145800805\/1145800804\/1145800885\/1145800882", "Representa": "SUBCOMISARIO SILVA NORBERTO CLAUDIO" }, "geometry": { "type": "Point", "coordinates": [ -58.541791, -34.455217 ] } },
{ "type": "Feature", "properties": { "Dependencia": "Comisaría", "Organismo": "Ministerio de Seguridad", "Nombre": "CRIA.SAN MARTIN 1RA", "Dirección": "BALBIN, RICARDO E\/ BELGRANO Y MITRE", "Partido": "General San Martín", "Teléfono": "011-45126081\/85\/86\/67786707", "Representa": "COMISARIO SERRIZUELA CLAUDIO FERNANDO" }, "geometry": { "type": "Point", "coordinates": [ -58.541942, -34.580624 ] } },
{ "type": "Feature", "properties": { "Dependencia": "Comisaría", "Organismo": "Ministerio de Seguridad", "Nombre": "CRIA.TRES DE FEBRERO 6TA", "Dirección": "PASO E\/ PASTEUR Y RICHIERI", "Partido": "Tres de Febrero", "Teléfono": "01146539992\/4657\/9586", "Representa": "COMISARIO FIGUEROA FACUNDO HERNAN" }, "geometry": { "type": "Point", "coordinates": [ -58.542464, -34.624342 ] } },
{ "type": "Feature", "properties": { "Dependencia": "Comisaría", "Organismo": "Ministerio de Seguridad", "Nombre": "CRIA.TRES DE FEBRERO 2DA", "Dirección": "GACETA DE BS AS E\/ JUSTO, JUAN B. Y ARCO, STA. JUA", "Partido": "Tres de Febrero", "Teléfono": "01146533333\/4542", "Representa": "COMISARIO CARDONA GRIÑO LUIS" }, "geometry": { "type": "Point", "coordinates": [ -58.543021, -34.638074 ] } },
{ "type": "Feature", "properties": { "Dependencia": "Comisaría", "Organismo": "Ministerio de Seguridad", "Nombre": "CRIA.LA MATANZA NOROESTE 6TA", "Dirección": "GRAL ACHA E\/ BALCARCE Y PALACIOS, ALFREDO", "Partido": "La Matanza", "Teléfono": "4653-3344 4647-0574\/0172", "Representa": "COMISARIO BRITEZ HORACIO ENRIQUE" }, "geometry": { "type": "Point", "coordinates": [ -58.545767, -34.647467 ] } },
{ "type": "Feature", "properties": { "Dependencia": "Comisaría", "Organismo": "Ministerio de Seguridad", "Nombre": "CRIA.SAN ISIDRO 8VA", "Dirección": "SCALABRINI ORTIZ E\/ PERITO MORENO Y MALVINAS, SOLD", "Partido": "San Isidro", "Teléfono": "1145804455\/59", "Representa": "" }, "geometry": { "type": "Point", "coordinates": [ -58.549273, -34.521008 ] } },
{ "type": "Feature", "properties": { "Dependencia": "Comisaría", "Organismo": "Ministerio de Seguridad", "Nombre": "", "Dirección": "OMBU NRO. 3720", "Partido": "La Matanza", "Teléfono": "", "Representa": "" }, "geometry": { "type": "Point", "coordinates": [ -58.549567, -34.680499 ] } },
{ "type": "Feature", "properties": { "Dependencia": "Comisaría", "Organismo": "Ministerio de Seguridad", "Nombre": "CRIA.SAN FERNANDO 2DA", "Dirección": "SOBREMONTE E\/ PASTEUR Y IRIONDO, S.", "Partido": "San Fernando", "Teléfono": "1145800887\/1145800806\/1145800881", "Representa": "SUBCOMISARIO PERALTA ANGEL JULIO" }, "geometry": { "type": "Point", "coordinates": [ -58.55204, -34.455461 ] } },
{ "type": "Feature", "properties": { "Dependencia": "Comisaría", "Organismo": "Ministerio de Seguridad", "Nombre": "CRIA.SAN MARTIN 2DA", "Dirección": "BVARD. BALLESTER E\/ LAVALLE Y ALVEAR", "Partido": "General San Martín", "Teléfono": "011-45125545\/46\/5559", "Representa": "SUBCOMISARIO ROMERO CLAUDIO JAVIER" }, "geometry": { "type": "Point", "coordinates": [ -58.552752, -34.547925 ] } },
{ "type": "Feature", "properties": { "Dependencia": "Comisaría", "Organismo": "Ministerio de Seguridad", "Nombre": "CRIA.SAN MARTIN 9NA", "Dirección": "INDUSTRIA NRO. 3300", "Partido": "General San Martín", "Teléfono": "011-45126091", "Representa": "COMISARIO SASTRE RODOLFO JAVIER" }, "geometry": { "type": "Point", "coordinates": [ -58.553567, -34.55874 ] } },
{ "type": "Feature", "properties": { "Dependencia": "Comisaría", "Organismo": "Ministerio de Seguridad", "Nombre": "CRIA.LA MATANZA NOROESTE 5TA", "Dirección": "ACONCAGUA E\/ PEREYRA, LUIS Y OLIVERA, DOMINGO", "Partido": "La Matanza", "Teléfono": "4658-6741 4656-9555", "Representa": "SUBCOMISARIO GOMEZ LORENA VANESA" }, "geometry": { "type": "Point", "coordinates": [ -58.5549, -34.658433 ] } },
{ "type": "Feature", "properties": { "Dependencia": "Comisaría", "Organismo": "Ministerio de Seguridad", "Nombre": "CRIA.SAN FERNANDO 1RA", "Dirección": "PERON, PTE. J.D. E\/ 9 DE JULIO Y MADERO", "Partido": "San Fernando", "Teléfono": "01145800808\/09\/0883\/88", "Representa": "COMISARIO VARGAS ROBERTO CLAUDIO" }, "geometry": { "type": "Point", "coordinates": [ -58.556183, -34.44017 ] } },
{ "type": "Feature", "properties": { "Dependencia": "Comisaría", "Organismo": "Ministerio de Seguridad", "Nombre": "SUBCRIA.BAIRES BºBANCALARI", "Dirección": "AVE DEL LIBERTADOR  GRAL SAN MARTIN Y ALVEAR", "Partido": "San Fernando", "Teléfono": "1148469010", "Representa": "SUBCOMISARIO FRIDMAN ALEJANDRO DAVID" }, "geometry": { "type": "Point", "coordinates": [ -58.56009099, -34.43580558 ] } },
{ "type": "Feature", "properties": { "Dependencia": "Comisaría", "Organismo": "Ministerio de Seguridad", "Nombre": "CRIA.LA MATANZA NOROESTE 1RA", "Dirección": "VILLEGAS E\/ ALMAFUERTE Y ARIETA, ING.", "Partido": "La Matanza", "Teléfono": "4651-3333\/8302 4484-4700 4482-5683", "Representa": "COMISARIO CAPALBO FRANCISCO ARTURO" }, "geometry": { "type": "Point", "coordinates": [ -58.561606, -34.677107 ] } },
{ "type": "Feature", "properties": { "Dependencia": "Comisaría", "Organismo": "Ministerio de Seguridad", "Nombre": "CRIA.LA MATANZA NOROESTE 2DA", "Dirección": "AV. DE MAYO E\/ CHACABUCO Y CASTELLI", "Partido": "La Matanza", "Teléfono": "4658-3333\/1683 4656-1118", "Representa": "COMISARIO BATALLAN RUBEN DAVID" }, "geometry": { "type": "Point", "coordinates": [ -58.564905, -34.645799 ] } },
{ "type": "Feature", "properties": { "Dependencia": "Comisaría", "Organismo": "Ministerio de Seguridad", "Nombre": "CRIA.TRES DE FEBRERO 1RA", "Dirección": "SAN JORGE E\/ AV. URQUIZA Y BELGRANO", "Partido": "Tres de Febrero", "Teléfono": "01147503333\/45127607\/7997\/98\/7766", "Representa": "COMISARIO ARCE DANIEL GUSTAVO" }, "geometry": { "type": "Point", "coordinates": [ -58.566683, -34.606261 ] } },
{ "type": "Feature", "properties": { "Dependencia": "Comisaría", "Organismo": "Ministerio de Seguridad", "Nombre": "CRIA.SAN ISIDRO 3RA", "Dirección": "AV. ROLON, AVELINO E\/ OLAZABAL Y BULNES", "Partido": "San Isidro", "Teléfono": "1145804468\/1145804467\/1145804461", "Representa": "COMISARIO ROSSO ALBERTO ORLANDO" }, "geometry": { "type": "Point", "coordinates": [ -58.567472, -34.512241 ] } },
{ "type": "Feature", "properties": { "Dependencia": "Comisaría", "Organismo": "Ministerio de Seguridad", "Nombre": "CRIA.EZEIZA 2DA", "Dirección": "ERRATCHU E\/ 25 DE MAYO Y MAROTTO", "Partido": "Ezeiza", "Teléfono": "011-4234-8327", "Representa": "" }, "geometry": { "type": "Point", "coordinates": [ -58.569202, -34.893179 ] } },
{ "type": "Feature", "properties": { "Dependencia": "Comisaría", "Organismo": "Ministerio de Seguridad", "Nombre": "CRIA.MORON 5TA", "Dirección": "TRES DE FEBRERO Y DEL CAMPO, ESTANISLAO", "Partido": "Morón", "Teléfono": "1146566328\/46560550\/46549841\/46580130", "Representa": "COMISARIO REINOSO MARIANO ERNESTO" }, "geometry": { "type": "Point", "coordinates": [ -58.569682, -34.63515 ] } },
{ "type": "Feature", "properties": { "Dependencia": "Comisaría", "Organismo": "Ministerio de Seguridad", "Nombre": "CRIA.TRES DE FEBRERO 9NA", "Dirección": "SEGUNDO SOMBRA E\/ ILLIA, ARTURO Y HERNANDEZ, JOSE", "Partido": "Tres de Febrero", "Teléfono": "01145126863\/64\/67\/69", "Representa": "COMISARIO SROKA ARNALDO" }, "geometry": { "type": "Point", "coordinates": [ -58.573002, -34.586552 ] } },
{ "type": "Feature", "properties": { "Dependencia": "Comisaría", "Organismo": "Ministerio de Seguridad", "Nombre": "CRIA.LA MATANZA OESTE 4TA", "Dirección": "PEKIN E\/ BERRO, ADOLFO Y ANATOLE FRANCE", "Partido": "La Matanza", "Teléfono": "4694-2222", "Representa": "COMISARIO SANCHEZ SERGIO ANTONIO" }, "geometry": { "type": "Point", "coordinates": [ -58.573356, -34.713304 ] } },
{ "type": "Feature", "properties": { "Dependencia": "Comisaría", "Organismo": "Ministerio de Seguridad", "Nombre": "CRIA.SAN MARTIN 5TA", "Dirección": "SAN LORENZO Y MORENO", "Partido": "General San Martín", "Teléfono": "011-45127893\/91\/6705\/7892", "Representa": "COMISARIO ARIAS FACUNDO RODOLFO ANGEL" }, "geometry": { "type": "Point", "coordinates": [ -58.573394, -34.575026 ] } },
{ "type": "Feature", "properties": { "Dependencia": "Comisaría", "Organismo": "Ministerio de Seguridad", "Nombre": "CRIA.SAN MARTIN 4TA", "Dirección": "AV. MARQUEZ E\/ BVRD. BALLESTER Y BUENOS AIERS", "Partido": "General San Martín", "Teléfono": "011-45801155\/1156", "Representa": "COMISARIO LUNA ANGEL DANIEL" }, "geometry": { "type": "Point", "coordinates": [ -58.574582, -34.529568 ] } },
{ "type": "Feature", "properties": { "Dependencia": "Comisaría", "Organismo": "Ministerio de Seguridad", "Nombre": "CRIA.SAN ISIDRO 9NA", "Dirección": "CNO. REAL MORON E\/ PANAMERICANA Y ARANA, GDOR.", "Partido": "San Isidro", "Teléfono": "1145804472", "Representa": "COMISARIO ESPINOSA JULIO MARCELO" }, "geometry": { "type": "Point", "coordinates": [ -58.581054, -34.485011 ] } },
{ "type": "Feature", "properties": { "Dependencia": "Comisaría", "Organismo": "Ministerio de Seguridad", "Nombre": "", "Dirección": "CAMINO REAL Y SASTRE", "Partido": "Ezeiza", "Teléfono": "S\/D", "Representa": "" }, "geometry": { "type": "Point", "coordinates": [ -58.58178346, -34.83195471 ] } },
{ "type": "Feature", "properties": { "Dependencia": "Comisaría", "Organismo": "Ministerio de Seguridad", "Nombre": "SUBCRIA.DELTA", "Dirección": "LAVALLE Y SAN MARTIN", "Partido": "Tigre", "Teléfono": "1145805226", "Representa": "SUBCOMISARIO SUYO OMAR ALFREDO" }, "geometry": { "type": "Point", "coordinates": [ -58.581838, -34.42174 ] } },
{ "type": "Feature", "properties": { "Dependencia": "Comisaría", "Organismo": "Ministerio de Seguridad", "Nombre": "SUBCRIA.JOSE LEON SUAREZ SUR", "Dirección": "AV MARQUEZ Y 9 DE JULIO", "Partido": "General San Martín", "Teléfono": "S\/D", "Representa": "COMISARIO ACIAR DANIEL MAURICIO" }, "geometry": { "type": "Point", "coordinates": [ -58.58206157, -34.54829935 ] } },
{ "type": "Feature", "properties": { "Dependencia": "Comisaría", "Organismo": "Ministerio de Seguridad", "Nombre": "CRIA.SAN FERNANDO 4TA", "Dirección": "MIGUEL CANE E\/ EFRNANDO FADER Y BENJAMIN FRANKLIN", "Partido": "San Fernando", "Teléfono": "1145800802\/1145800801\/1145800803", "Representa": "SUBCOMISARIO MONTENEGRO JAVIER ROBERTO" }, "geometry": { "type": "Point", "coordinates": [ -58.583754, -34.46407 ] } },
{ "type": "Feature", "properties": { "Dependencia": "Comisaría", "Organismo": "Ministerio de Seguridad", "Nombre": "CRIA.LA MATANZA NOROESTE 3RA", "Dirección": "GARIBALDI E\/ ENTRE RIOS Y ALMAFUERTE", "Partido": "La Matanza", "Teléfono": "4650-9156 4443-1301 4659-3344", "Representa": "SUBCOMISARIO SOSA BRUNO GASTON" }, "geometry": { "type": "Point", "coordinates": [ -58.585689, -34.657684 ] } },
{ "type": "Feature", "properties": { "Dependencia": "Comisaría", "Organismo": "Ministerio de Seguridad", "Nombre": "CRIA.MORON 2DA", "Dirección": "TACUARI E\/ CHACABUCO Y MAIPU", "Partido": "Morón", "Teléfono": "01144600223\/44601895\/1144433766\/46593333\/46594444\/", "Representa": "SUBCOMISARIO AGUILAR MORENO NESTOR MARCELO" }, "geometry": { "type": "Point", "coordinates": [ -58.586054, -34.646909 ] } },
{ "type": "Feature", "properties": { "Dependencia": "Comisaría", "Organismo": "Ministerio de Seguridad", "Nombre": "CRIA.LA MATANZA OESTE 1RA", "Dirección": "PARIS E\/ SEGUI Y SANTIAGO", "Partido": "La Matanza", "Teléfono": "4625-4049\/5711", "Representa": "SUBCOMISARIO ZABALA JOSE TEODORO" }, "geometry": { "type": "Point", "coordinates": [ -58.586098, -34.699658 ] } },
{ "type": "Feature", "properties": { "Dependencia": "Comisaría", "Organismo": "Ministerio de Seguridad", "Nombre": "CRIA.EZEIZA 3RA", "Dirección": "25 DE MAYO E\/ 12 DE OCTUBRE Y ROSARIO", "Partido": "Ezeiza", "Teléfono": "022274-421-153", "Representa": "" }, "geometry": { "type": "Point", "coordinates": [ -58.589894, -34.914453 ] } },
{ "type": "Feature", "properties": { "Dependencia": "Comisaría", "Organismo": "Ministerio de Seguridad", "Nombre": "CRIA.TRES DE FEBRERO 7MA", "Dirección": "LOS AROMOS E\/ MAGNOLIAS Y ROBLES", "Partido": "Tres de Febrero", "Teléfono": "01145133060\/62", "Representa": "COMISARIO RODRIGUEZ CARLOS DANIEL" }, "geometry": { "type": "Point", "coordinates": [ -58.590273, -34.604544 ] } },
{ "type": "Feature", "properties": { "Dependencia": "Comisaría", "Organismo": "Ministerio de Seguridad", "Nombre": "CRIA.LA MATANZA ESTE 1RA", "Dirección": "RAFAEL OBLIGADO E\/ GUTIERREZ, RICARDO Y BEETHOVEN", "Partido": "La Matanza", "Teléfono": "4626-1111\/1444 4467-0085\/0376", "Representa": "" }, "geometry": { "type": "Point", "coordinates": [ -58.591283, -34.748547 ] } },
{ "type": "Feature", "properties": { "Dependencia": "Comisaría", "Organismo": "Ministerio de Seguridad", "Nombre": "CRIA.LA MATANZA ESTE 2DA", "Dirección": "NEWBERY, JORGE E\/ SOLDADO ROSA Y TRES CRUCES", "Partido": "La Matanza", "Teléfono": "4626-0088\/0153", "Representa": "COMISARIO MIRANDA ROBERTO RUFINO" }, "geometry": { "type": "Point", "coordinates": [ -58.591665, -34.73033 ] } },
{ "type": "Feature", "properties": { "Dependencia": "Comisaría", "Organismo": "Ministerio de Seguridad", "Nombre": "SUBCRIA.CUATRO BOCAS", "Dirección": "BLAS PARERA Y CAMINO REAL", "Partido": "Ezeiza", "Teléfono": "011-42343567", "Representa": "OFICIAL PRINCIPAL D'ELIA LUCAS MATIAS" }, "geometry": { "type": "Point", "coordinates": [ -58.59480737, -34.86256448 ] } },
{ "type": "Feature", "properties": { "Dependencia": "Comisaría", "Organismo": "Ministerio de Seguridad", "Nombre": "CRIA.SAN MARTIN 10MA.", "Dirección": "CAMINO DEL BUEN AYRE Y SALVADOR DEBENEDETTI", "Partido": "General San Martín", "Teléfono": "011-4580-1061", "Representa": "COMISARIO PEREZ ALBERTO ADOLFO" }, "geometry": { "type": "Point", "coordinates": [ -58.59559587, -34.53344377 ] } },
{ "type": "Feature", "properties": { "Dependencia": "Comisaría", "Organismo": "Ministerio de Seguridad", "Nombre": "CRIA.LA MATANZA OESTE 2DA", "Dirección": "BEDOYA, ELIAS E\/ OLIVIERI Y LAVALLOL", "Partido": "La Matanza", "Teléfono": "4625-4758\/6204", "Representa": "COMISARIO OLIVERA HECTOR RUBEN" }, "geometry": { "type": "Point", "coordinates": [ -58.596008, -34.714297 ] } },
{ "type": "Feature", "properties": { "Dependencia": "Comisaría", "Organismo": "Ministerio de Seguridad", "Nombre": "CRIA.MORON 6TA", "Dirección": "TTE GALAN E\/ VICTORICA Y PEDERNERA", "Partido": "Morón", "Teléfono": "1145133480\/45133064\/45133061\/01147587428", "Representa": "COMISARIO GONZALEZ RICARDO ALFREDO" }, "geometry": { "type": "Point", "coordinates": [ -58.596268, -34.608575 ] } },
{ "type": "Feature", "properties": { "Dependencia": "Comisaría", "Organismo": "Ministerio de Seguridad", "Nombre": "CRIA.TRES DE FEBRERO 5TA", "Dirección": "AV. MARQUEZ E\/ SAN GUILLERMO Y BESADA", "Partido": "Tres de Febrero", "Teléfono": "01145127884\/85\/86\/89", "Representa": "SUBCOMISARIO GALVAN JOSE AGUSTIN" }, "geometry": { "type": "Point", "coordinates": [ -58.597884, -34.576617 ] } },
{ "type": "Feature", "properties": { "Dependencia": "Comisaría", "Organismo": "Ministerio de Seguridad", "Nombre": "CRIA.LA MATANZA SUR 3RA", "Dirección": "ACHUPALLAS E\/ SOBERANIA NACIONAL Y MANASCO", "Partido": "La Matanza", "Teléfono": "02202-451850\/453926", "Representa": "COMISARIO BANEGAS JAVIER ENRIQUE" }, "geometry": { "type": "Point", "coordinates": [ -58.615678, -34.772367 ] } },
{ "type": "Feature", "properties": { "Dependencia": "Comisaría", "Organismo": "Ministerio de Seguridad", "Nombre": "CRIA.TIGRE 3RA", "Dirección": "ALVEAR, M. T. DE E\/ RIOBAMBA Y MENENDEZ Y PELAYO", "Partido": "Tigre", "Teléfono": "1145132783\/4", "Representa": "COMISARIO DERUDI MAURICIO JAVIER" }, "geometry": { "type": "Point", "coordinates": [ -58.618927, -34.4875 ] } },
{ "type": "Feature", "properties": { "Dependencia": "Comisaría", "Organismo": "Ministerio de Seguridad", "Nombre": "CRIA.MORON 1RA", "Dirección": "MITRE, B. E\/ BELGRANO Y SAN MARTIN", "Partido": "Morón", "Teléfono": "1144893869\/44835053\/46293333\/01146284390\/46284393", "Representa": "" }, "geometry": { "type": "Point", "coordinates": [ -58.622103, -34.652832 ] } },
{ "type": "Feature", "properties": { "Dependencia": "Comisaría", "Organismo": "Ministerio de Seguridad", "Nombre": "CRIA.LA MATANZA OESTE 3RA", "Dirección": "MENDES ANDES E\/ SANTA CRUZ Y CAPDEVILA", "Partido": "La Matanza", "Teléfono": "4697-7195\/8103\/0448\/3892", "Representa": "COMISARIO OCAMPOS DIEGO ADRIAN" }, "geometry": { "type": "Point", "coordinates": [ -58.626994, -34.698792 ] } },
{ "type": "Feature", "properties": { "Dependencia": "Comisaría", "Organismo": "Ministerio de Seguridad", "Nombre": "CRIA.TIGRE 2DA", "Dirección": "IRIGOYEN, HIPOLITO NRO. 745", "Partido": "Tigre", "Teléfono": "1145129763\/62\/877", "Representa": "SUBCOMISARIO FRANCO DIEGO JOSE LUIS" }, "geometry": { "type": "Point", "coordinates": [ -58.632531, -34.459219 ] } },
{ "type": "Feature", "properties": { "Dependencia": "Comisaría", "Organismo": "Ministerio de Seguridad", "Nombre": "CRIA.HURLINGHAM 2DA", "Dirección": "AV. VERGARA NRO. 2350", "Partido": "Hurlingham", "Teléfono": "1144502554\/1144591910\/1144596142\/1144505192", "Representa": "COMISARIO MIRANDA CAMILO CESAR" }, "geometry": { "type": "Point", "coordinates": [ -58.634388, -34.61481 ] } },
{ "type": "Feature", "properties": { "Dependencia": "Comisaría", "Organismo": "Ministerio de Seguridad", "Nombre": "CRIA.MORON 4TA", "Dirección": "SANTO DOMINGO E\/ AV. PERON, EVA Y SOLARI", "Partido": "Morón", "Teléfono": "1146974791\/46976531\/46976222\/46972944", "Representa": "COMISARIO PEREZ CHRISTIAN DAVID" }, "geometry": { "type": "Point", "coordinates": [ -58.63477, -34.685152 ] } },
{ "type": "Feature", "properties": { "Dependencia": "Comisaría", "Organismo": "Ministerio de Seguridad", "Nombre": "CRIA.MORON 3RA", "Dirección": "LIBERTADOR E\/ ATALIVA ROCA Y ROCHA, DARDO", "Partido": "Morón", "Teléfono": "01146284544\/46284538\/1146293344\/44895346\/46294444", "Representa": "SUBCOMISARIO MEMOLI MARCELO MARTIN" }, "geometry": { "type": "Point", "coordinates": [ -58.635836, -34.6559 ] } },
{ "type": "Feature", "properties": { "Dependencia": "Comisaría", "Organismo": "Ministerio de Seguridad", "Nombre": "CRIA.HURLINGHAM 5TA", "Dirección": "CJAL ENRIQUE RECAGNO Y THEVENING", "Partido": "Hurlingham", "Teléfono": "1146628444\/1144526908\/1144527025", "Representa": "" }, "geometry": { "type": "Point", "coordinates": [ -58.636435, -34.572554 ] } },
{ "type": "Feature", "properties": { "Dependencia": "Comisaría", "Organismo": "Ministerio de Seguridad", "Nombre": "CRIA.HURLINGHAM 1RA", "Dirección": "VICTORIA E\/ MUSTONI Y GARIBALDI", "Partido": "Hurlingham", "Teléfono": "1144528370\/1146623333\/1146622222", "Representa": "" }, "geometry": { "type": "Point", "coordinates": [ -58.641782, -34.584126 ] } },
{ "type": "Feature", "properties": { "Dependencia": "Comisaría", "Organismo": "Ministerio de Seguridad", "Nombre": "CRIA.LA MATANZA SUR 1RA", "Dirección": "SAENZ E\/ CUYO Y PUERTO ARGENTINO", "Partido": "La Matanza", "Teléfono": "02202-422333\/431333\/422691\/461445\/461433", "Representa": "COMISARIO ROTUNNO JERONIMO ALBERTO" }, "geometry": { "type": "Point", "coordinates": [ -58.644854, -34.770688 ] } },
{ "type": "Feature", "properties": { "Dependencia": "Comisaría", "Organismo": "Ministerio de Seguridad", "Nombre": "CRIA.MORON 7MA", "Dirección": "ALEM, L. N. E\/ ESPANA Y ITALIA", "Partido": "Morón", "Teléfono": "01144581906\/1146230584\/46234556\/46231043", "Representa": "COMISARIO CASCO PABLO ALBERTO" }, "geometry": { "type": "Point", "coordinates": [ -58.645461, -34.642102 ] } },
{ "type": "Feature", "properties": { "Dependencia": "Comisaría", "Organismo": "Ministerio de Seguridad", "Nombre": "CRIA.HURLINGHAM 4TA", "Dirección": "LANGARA Y LEBENSHON", "Partido": "Hurlingham", "Teléfono": "114460      ", "Representa": "SUBCOMISARIO AZAMEZ FERNANDO HUGO" }, "geometry": { "type": "Point", "coordinates": [ -58.65214, -34.617842 ] } },
{ "type": "Feature", "properties": { "Dependencia": "Comisaría", "Organismo": "Ministerio de Seguridad", "Nombre": "CRIA.TIGRE 6TA", "Dirección": "HIPOLITO YRIGOYEN Y PARAGUAY", "Partido": "Tigre", "Teléfono": "1147266206", "Representa": "SUBCOMISARIO BORDA VICTOR ANTONIO" }, "geometry": { "type": "Point", "coordinates": [ -58.654355, -34.470951 ] } },
{ "type": "Feature", "properties": { "Dependencia": "Comisaría", "Organismo": "Ministerio de Seguridad", "Nombre": "CRIA.HURLINGHAM 3RA", "Dirección": "POTOSI NRO. 3490", "Partido": "Hurlingham", "Teléfono": "1146658402\/1146658418", "Representa": "COMISARIO GOMEZ CARLOS GERMAN" }, "geometry": { "type": "Point", "coordinates": [ -58.660212, -34.577301 ] } },
{ "type": "Feature", "properties": { "Dependencia": "Comisaría", "Organismo": "Ministerio de Seguridad", "Nombre": "CRIA.TIGRE 5TA", "Dirección": "GELLY OBES, ANDRES GRAL. E\/ ALEMANIA Y CORTEZ, HER", "Partido": "Tigre", "Teléfono": "1145129792\/760\/761\/764\/765", "Representa": "SUBCOMISARIO BRITO HEREDIA MARCOS BAUTISTA" }, "geometry": { "type": "Point", "coordinates": [ -58.660917, -34.483969 ] } },
{ "type": "Feature", "properties": { "Dependencia": "Comisaría", "Organismo": "Ministerio de Seguridad", "Nombre": "CRIA.ITUZAINGO 2DA", "Dirección": "LAVALLEJA NRO. 750", "Partido": "Ituzaingó", "Teléfono": "1144584999\/1146234423\/1146235461\/1146244941", "Representa": "SUBCOMISARIO PEREZ DANIEL FERNANDO" }, "geometry": { "type": "Point", "coordinates": [ -58.668015, -34.64114 ] } },
{ "type": "Feature", "properties": { "Dependencia": "Comisaría", "Organismo": "Ministerio de Seguridad", "Nombre": "CRIA.ITUZAINGO 1RA", "Dirección": "OLAZABAL NRO. 899", "Partido": "Ituzaingó", "Teléfono": "1146230795\/1146230842\/1146243333", "Representa": "COMISARIO CONTRERAS ROBERTO FABIAN" },